name,rating,address,hours_today,website,phone,latitude,longitude,link,is_relevant,from_,destination
Agen Bus Pahala Kencana,"4,1","Jl. AH. Nasution No.124, Cipadung Wetan, Kec. Panyileukan, Kota Bandung, Jawa Barat 40614",,,0821-4405-1288,-6.9348577,107.7189621,https://www.google.com/maps/place/Agen+Bus+Pahala+Kencana/data=!4m7!3m6!1s0x2e68c327d2c1de4d:0x3d045fe1f61258f6!8m2!3d-6.9348577!4d107.7189621!16s%2Fg%2F11c601bmzt!19sChIJTd7B0ifDaC4R9lgS9uFfBD0?authuser=0&hl=id&rclk=1,True,Bandung,"Jakarta, Bekasi, Bogor, Depok, Cirebon, Denpasar (Bali), Surabaya, Malang"
Agen Resmi Keramat Jati,"4,6","2QVH+5CH, Jalan, Jelegong, Rancaekek, Bandung Regency, West Java 40394",,,(022) 7782788,-6.9570576,107.7786205,https://www.google.com/maps/place/Agen+Resmi+Keramat+Jati/data=!4m7!3m6!1s0x2e68c48ed9b5d95b:0xd9e551113d58e1d3!8m2!3d-6.9570576!4d107.7786205!16s%2Fg%2F11b6jgs3nl!19sChIJW9m12Y7EaC4R0-FYPRFR5dk?authuser=0&hl=id&rclk=1,True,Bandung,
Agen buz Kramat Jati,"5,0","Jl. Raya Kamasan Banjaran No.220, Kamasan, Kec. Banjaran, Kabupaten Bandung, Jawa Barat 40377",,,,-7.0474622,107.582662,https://www.google.com/maps/place/Agen+buz+Kramat+Jati/data=!4m7!3m6!1s0x2e68eb28c3c4a09f:0x6529c9ed8ed02cd7!8m2!3d-7.0474622!4d107.582662!16s%2Fg%2F11fn0bcw88!19sChIJn6DEwyjraC4R1yzQju3JKWU?authuser=0&hl=id&rclk=1,True,Bandung,"Palembang, Metro, Terbanggi Besar, Negara"
Agen sinar jaya cicaheum bandung,"4,3","Terminal Bus Cicaheum, Jl. A. Yani, Cicaheum, Kec. Kiaracondong, Kota Bandung, Jawa Barat 40282",05.00–19.00,,0838-7934-9094,-6.9023261,107.6571696,https://www.google.com/maps/place/Agen+sinar+jaya+cicaheum+bandung/data=!4m7!3m6!1s0x2e68e7d727a435a3:0x2a20888f09390ae7!8m2!3d-6.9023261!4d107.6571696!16s%2Fg%2F11l30wbl97!19sChIJozWkJ9fnaC4R5wo5CY-IICo?authuser=0&hl=id&rclk=1,True,Bandung,"Bogor, Bekasi, Jakarta, Yogyakarta, Surabaya, Banjarnegara, Temanggung, Banyuwangi, Surakarta, Purbalingga, Salatiga, Cepu, Blora, Kebumen, Sumenep, Banyumas, Sukoharjo, Pekalongan, Kuningan, Weleri, Mateseh, Karawang, Pemalang, Brebes, Purwodadi, Prambanan, Sleman, Banjar, Grobogan, Semarang, Metro, Sampang, Cilacap, Tegal, Magelang, Wonosobo, Klaten, Klampok, Boyolali"
Agen tiket Pahala kencana Holia,"5,0","Jl. Holis No.398, Caringin, Kec. Bandung Kulon, Kota Bandung, Jawa Barat 40212",,,,-6.9377418,107.5698407,https://www.google.com/maps/place/Agen+tiket+Pahala+kencana+Holia/data=!4m7!3m6!1s0x2e68ef0027157ac5:0x7f91300e3efa678a!8m2!3d-6.9377418!4d107.5698407!16s%2Fg%2F11wh3x1fyy!19sChIJxXoVJwDvaC4Rimf6Pg4wkX8?authuser=0&hl=id&rclk=1,True,Bandung,"Denpasar (Bali), Malang, Surabaya, Metro"
Alavia Tour,"5,0","Jalan PLN Jl. Babakan Dangdeur, Pasir Biru, Cibiru, Bandung City, West Java 40615",08.00–16.00,https://alaviatour.com/,0856-2495-7868,-6.9298452,107.7206041,https://www.google.com/maps/place/Alavia+Tour/data=!4m7!3m6!1s0x2e68c3d17529c02b:0x304836f1ee10f534!8m2!3d-6.9298452!4d107.7206041!16s%2Fg%2F11v0pqyc2h!19sChIJK8ApddHDaC4RNPUQ7vE2SDA?authuser=0&hl=id&rclk=1,True,Bandung,
Angkutan Bandung Ke Bandara Primajasa,"4,3","Jl. Soekarno-Hatta No.159, Babakan Ciparay, Kec. Babakan Ciparay, Kota Bandung, Jawa Barat 40223",Buka 24 jam,,0821-1864-9978,-6.9402693,107.5820085,https://www.google.com/maps/place/Angkutan+Bandung+Ke+Bandara+Primajasa/data=!4m7!3m6!1s0x2e68e8ae1b17a083:0xae5581cf12aa3116!8m2!3d-6.9402693!4d107.5820085!16s%2Fg%2F11cn6h7_5z!19sChIJg6AXG67oaC4RFjGqEs-BVa4?authuser=0&hl=id&rclk=1,True,Bandung,
Aragon travel,"4,0","Jl. Terusan Buah Batu No.259A, Kujangsari, Kec. Bandung Kidul, Kota Bandung, Jawa Barat 40287",05.00–20.00,http://www.aragontrans.com/,0811-1771-505,-6.9618957,107.6388528,https://www.google.com/maps/place/Aragon+travel/data=!4m7!3m6!1s0x2e68e9e6592275e3:0x2b0337a341d83a9e!8m2!3d-6.9618957!4d107.6388528!16s%2Fg%2F11qmn84kph!19sChIJ43UiWebpaC4RnjrYQaM3Ays?authuser=0&hl=id&rclk=1,True,Bandung,"Jakarta, Banjar, Bogor, Cilacap, Purwokerto, Semarang, Tasikmalaya"
Aragon Transport Pasteur,"4,5","Jl. Dr. Djundjunan No.121, Pajajaran, Kec. Cicendo, Kota Bandung, Jawa Barat 40173",05.00–20.00,http://www.aragontrans.com/,0811-1962-121,-6.8948274,107.5877161,https://www.google.com/maps/place/Shuttle+%26+Travel+%7C+Aragon+Transport+Pasteur/data=!4m7!3m6!1s0x2e68e7fe8ece6825:0x3f6c370b3b35ecd4!8m2!3d-6.8948274!4d107.5877161!16s%2Fg%2F11flbrtxq8!19sChIJJWjOjv7naC4R1Ow1Ows3bD8?authuser=0&hl=id&rclk=1,True,Bandung,"Bogor, Depok, Serpong"
Areon Trans (Pasteur - Bandung),"4,6","Pajajaran Kecamatan Cicendo Jl.Dr.Djundjunan No.125,pajajaran, kec.Cicendo,kota Bandung, Jawa Barat Lantai LGISL-05B, Kota Bandung, Jawa Barat 40173",05.00–21.00,https://www.areontrans.co.id/,0813-8888-0031,-6.8928143,107.5844026,https://www.google.com/maps/place/Areon+Trans+%28Pasteur+-+Bandung%29/data=!4m7!3m6!1s0x2e68e7ebfcfb880b:0x1662020b2b9fff81!8m2!3d-6.8928143!4d107.5844026!16s%2Fg%2F11f5krysck!19sChIJC4j7_OvnaC4Rgf-fKwsCYhY?authuser=0&hl=id&rclk=1,True,Bandung,"Jakarta, Bekasi"
Arnes Shuttle Bandung,"3,5","Baltos, Balubur Town Square, Jl. Tamansari No.2, Tamansari, Kec. Bandung Wetan, Kota Bandung, Jawa Barat 40116",05.30–21.00,http://arnes.id/,0813-1355-5008,-6.8984612,107.6087059,https://www.google.com/maps/place/Arnes+Shuttle+Bandung/data=!4m7!3m6!1s0x2e68e6456595e087:0xea20344b475291ab!8m2!3d-6.8984612!4d107.6087059!16s%2Fg%2F11bc7mp8xn!19sChIJh-CVZUXmaC4Rq5FSR0s0IOo?authuser=0&hl=id&rclk=1,True,Bandung,"Bekasi, Jatinangor, Jakarta, Cianjur, Purwakarta, Sukabumi, Cikopo"
BTM TRAVEL BUAH BATU,"5,0","Jl. Terusan Buah Batu No.293, Kujangsari, Kec. Bandung Kidul, Kota Bandung, Jawa Barat 40287",,http://www.btmshuttle.id/,0819-9809-2000,-6.9637946,107.638312,https://www.google.com/maps/place/BTM+TRAVEL+BUAH+BATU/data=!4m7!3m6!1s0x2e68e84c661d319b:0x7875ec1eb7243d3c!8m2!3d-6.9637946!4d107.638312!16s%2Fg%2F11s5ltmfh1!19sChIJmzEdZkzoaC4RPD0ktx7sdXg?authuser=0&hl=id&rclk=1,True,Bandung,"Serang, Cilegon, Rangkasbitung, Pandeglang"
Baraya Surapati 2,"4,3","Jl. Surapati No.123, Sukaluyu, Kec. Cibeunying Kaler, Kota Bandung, Jawa Barat 40123",04.00–21.00,https://baraya-travel.com/,,-6.8992874,107.626793,https://www.google.com/maps/place/Baraya+Surapati+2/data=!4m7!3m6!1s0x2e68e79bfa1f7c13:0x6f6b8cf218b605ae!8m2!3d-6.8992874!4d107.626793!16s%2Fg%2F11h3df35hb!19sChIJE3wf-pvnaC4RrgW2GPKMa28?authuser=0&hl=id&rclk=1,True,Bandung,"Jakarta, Bekasi, Depok, Cibubur, Cinere, Ciledug, BSD"
Baraya Tour,"5,0","Gedung Lathifiyah, Jl. Cigadung Raya Timur No.137A, Cigadung, Cibeunying Kaler, Bandung City, West Java 40191",09.00–17.00,,0811-2208-780,-6.8835049,107.6327347,https://www.google.com/maps/place/Baraya+Tour/data=!4m7!3m6!1s0x2e68e7afb1d64db1:0x777f10ef267a0761!8m2!3d-6.8835049!4d107.6327347!16s%2Fg%2F11cjk23cd2!19sChIJsU3Wsa_naC4RYQd6Ju8Qf3c?authuser=0&hl=id&rclk=1,True,Bandung,
Baraya Travel Buah Batu,"4,2","Jl. Soekarno-Hatta No.482, Batununggal, Kec. Bandung Kidul, Kota Bandung, Jawa Barat 40266",05.00–22.00,http://www.baraya-travel.com/,(022) 2533456,-6.9486263,107.6331385,https://www.google.com/maps/place/Baraya+Travel+Buah+Batu/data=!4m7!3m6!1s0x2e68e85d53b77a61:0x439bba141d396244!8m2!3d-6.9486263!4d107.6331385!16s%2Fg%2F11c1qycrbh!19sChIJYXq3U13oaC4RRGI5HRS6m0M?authuser=0&hl=id&rclk=1,True,Bandung,"Jakarta, Bekasi, Depok, Cibubur, Cinere, Ciledug, BSD, Jatiwaringin"
Baraya Travel Pasteur 2,"4,4","Jl. Dr. Djundjunan No.155, Pamoyanan, Kec. Cicendo, Kota Bandung, Jawa Barat 40173",Buka 24 jam,https://wa.me/message/VR2BD5TPWM6DJ1,0821-1696-8067,-6.8926723,107.5832404,https://www.google.com/maps/place/Baraya+Travel+Pasteur+2/data=!4m7!3m6!1s0x2e68e666067e2329:0x2cf84895d2361c27!8m2!3d-6.8926723!4d107.5832404!16s%2Fg%2F11c0xrc8p8!19sChIJKSN-BmbmaC4RJxw20pVI-Cw?authuser=0&hl=id&rclk=1,True,Bandung,"Jakarta, Bekasi, Depok, Cibubur, Cinere, Ciledug, BSD"
Baraya Travel Soreang,"4,5","Jl. Raya Soreang - Banjaran No.323, Soreang, Kec. Soreang, Kabupaten Bandung, Jawa Barat 40911",05.15–20.15,https://baraya-travel.com/contact,,-7.03052,107.531675,https://www.google.com/maps/place/Baraya+Travel+Soreang/data=!4m7!3m6!1s0x2e68ed8b98d4c363:0x8d5a633c33f9f303!8m2!3d-7.03052!4d107.531675!16s%2Fg%2F11sdxk8r73!19sChIJY8PUmIvtaC4RA_P5MzxjWo0?authuser=0&hl=id&rclk=1,True,Bandung,"Jakarta, Bekasi, Depok, Cibubur, Cinere, Ciledug, BSD"
Baraya Travel Surapati 1,"4,4","Jl. Surapati No.42, Cihaur Geulis, Kec. Cibeunying Kaler, Kota Bandung, Jawa Barat 40122",05.00–21.00,http://www.baraya-travel.com/,(021) 7244999,-6.8991701,107.6271566,https://www.google.com/maps/place/Baraya+Travel+Surapati+1/data=!4m7!3m6!1s0x2e68e7b2552e7735:0x17781f9db788e4df!8m2!3d-6.8991701!4d107.6271566!16s%2Fg%2F11hd1tgdry!19sChIJNXcuVbLnaC4R3-SIt50feBc?authuser=0&hl=id&rclk=1,True,Bandung,"Jakarta, Bekasi, Depok, Cibubur, Cinere, Ciledug, BSD"
Baraya Travel dan Paket Antapani,"4,3","Jl. Terusan Jakarta No.130, Antapani Kulon, Kec. Antapani, Kota Bandung, Jawa Barat 40291",08.00–20.00,https://baraya-travel.com/,0851-5090-9153,-6.913027,107.657748,https://www.google.com/maps/place/Baraya+Travel+dan+Paket+Antapani/data=!4m7!3m6!1s0x2e68e70c23aae977:0xef6124b3965fa727!8m2!3d-6.913027!4d107.657748!16s%2Fg%2F11y6khvblf!19sChIJd-mqIwznaC4RJ6dflrMkYe8?authuser=0&hl=id&rclk=1,True,Bandung,"Jakarta, Bekasi, Bogor, Depok, Cibubur, Cinere, Ciledug, BSD"
Bhinneka Shuttle Mekar Wangi,"4,4","Jl. Soekarno-Hatta No.385, Karasak, Kec. Astanaanyar, Kota Bandung, Jawa Barat 40243",05.00–21.00,https://bhisa.id/,0813-2239-7700,-6.947877,107.604135,https://www.google.com/maps/place/Bhinneka+Shuttle+Mekar+Wangi/data=!4m7!3m6!1s0x2e68e65e4930d913:0x44fda171ad6a0344!8m2!3d-6.947877!4d107.604135!16s%2Fg%2F1hm5m4qnn!19sChIJE9kwSV7maC4RRANqrXGh_UQ?authuser=0&hl=id&rclk=1,True,Bandung,
Bhisa.id Bhinneka Shuttle Bandung Pasteur Square,"3,5","Jl. Dr. Djundjunan No.135, Pasteur, Kec. Cicendo, Kota Bandung, Jawa Barat 40111",Buka 24 jam,https://bhisa.id/,0813-2239-7700,-6.8938485,107.5864525,https://www.google.com/maps/place/Bhisa.id+Bhinneka+Shuttle+Bandung+Pasteur+Square/data=!4m7!3m6!1s0x2e68e6f3375f30a1:0xeef040a132f4051e!8m2!3d-6.8938485!4d107.5864525!16s%2Fg%2F1hm5syzbt!19sChIJoTBfN_PmaC4RHgX0MqFA8O4?authuser=0&hl=id&rclk=1,True,Bandung,
Bhisa.id Bhinneka Shuttle Buah Batu,"4,1","Jl. Terusan Buah Batu No.227, Kujangsari, Kec. Bandung Kidul, Kota Bandung, Jawa Barat 40287",05.00–21.00,https://bhisa.id/shuttle,(021) 50980345,-6.9604969,107.6392333,https://www.google.com/maps/place/Bhisa.id+Bhinneka+Shuttle+Buah+Batu/data=!4m7!3m6!1s0x2e68e846821369d7:0x88bcfd5cde1c971f!8m2!3d-6.9604969!4d107.6392333!16s%2Fg%2F11dzwbdyrb!19sChIJ12kTgkboaC4RH5cc3lz9vIg?authuser=0&hl=id&rclk=1,True,Bandung,
Bhisa.id Bhinneka Shuttle Dipatiukur,"4,3","Jl. Dipati Ukur No.108, Lebakgede, Kecamatan Coblong, Kota Bandung, Jawa Barat 40132",Buka 24 jam,https://bhisa.id/shuttle,(021) 50980345,-6.8851229,107.6140593,https://www.google.com/maps/place/Bhisa.id+Bhinneka+Shuttle+Dipatiukur/data=!4m7!3m6!1s0x2e68e7447d5175a1:0x266034280c81c75c!8m2!3d-6.8851229!4d107.6140593!16s%2Fg%2F11qyw7rs4x!19sChIJoXVRfUTnaC4RXMeBDCg0YCY?authuser=0&hl=id&rclk=1,True,Bandung,
Bimex Tour,"5,0","Jl. Dipati Ukur No.23, Lebakgede, Kecamatan Coblong, Kota Bandung, Jawa Barat 40132",09.30–15.30,http://www.bimextour.co.id/,0811-2233-523,-6.8959508,107.6162226,https://www.google.com/maps/place/Bimex+Tour/data=!4m7!3m6!1s0x2e68e6546deddd21:0xa6cf74330c8b0013!8m2!3d-6.8959508!4d107.6162226!16s%2Fg%2F1pzq003l7!19sChIJId3tbVTmaC4REwCLDDN0z6Y?authuser=0&hl=id&rclk=1,True,Bandung,
Bina Sarana Shuttle Nindya Biodistric Hotel,"4,5","Jl. Khp Hasan Mustopa No.57, Neglasari, Kec. Cibeunying Kaler, Kota Bandung, Jawa Barat 40124",05.00–21.00,https://binasarana.co.id/,0851-5627-2754,-6.8995318,107.6429852,https://www.google.com/maps/place/Bina+Sarana+Shuttle+Nindya+Biodistric+Hotel/data=!4m7!3m6!1s0x2e68e7ac8d7d3343:0x2368de525a83121c!8m2!3d-6.8995318!4d107.6429852!16s%2Fg%2F11rqg4j_sd!19sChIJQzN9jaznaC4RHBKDWlLeaCM?authuser=0&hl=id&rclk=1,True,Bandung,
Bus Malam Kramat Djati,"5,0","Jl. Ir. H. Juanda No.105, Lb. Siliwangi, Kecamatan Coblong, Kota Bandung, Jawa Barat 40135",,,(022) 2502317,-6.8932572,107.6128146,https://www.google.com/maps/place/Bus+Malam+Kramat+Djati/data=!4m7!3m6!1s0x2e68e65120495e1b:0x30976c1f1d20e2c2!8m2!3d-6.8932572!4d107.6128146!16s%2Fg%2F1hm5cd9f7!19sChIJG15JIFHmaC4RwuIgHR9slzA?authuser=0&hl=id&rclk=1,True,Bandung,
Bus Mewah AMTrans Luxurious,"1,0","Jl. Sukabirus No.3, Citeureup, Kec. Dayeuhkolot, Kabupaten Bandung, Jawa Barat 40257",08.00–21.00,http://www.amtransluxurious.com/,(022) 21226999,-6.9840647,107.6289891,https://www.google.com/maps/place/Bus+Mewah+AMTrans+Luxurious/data=!4m7!3m6!1s0x2e68e87c4d2cb853:0x4169f2c6b2bdbad7!8m2!3d-6.9840647!4d107.6289891!16s%2Fg%2F1yj4k3df3!19sChIJU7gsTXzoaC4R17q9ssbyaUE?authuser=0&hl=id&rclk=1,True,Bandung,
Bus primajasa,"5,0","3H9C+VQP, Caringin, Kec. Bandung Kulon, Kota Bandung, Jawa Barat",,,,-6.9302961,107.5719663,https://www.google.com/maps/place/Bus+primajasa/data=!4m7!3m6!1s0x2e68ef289679ad59:0x319da77cc427dedc!8m2!3d-6.9302961!4d107.5719663!16s%2Fg%2F11sv72213k!19sChIJWa15lijvaC4R3N4nxHynnTE?authuser=0&hl=id&rclk=1,True,Bandung,
CITY TOUR,"5,0","Alun alun bandung taman Jl. Cikapundung Barat, Braga, Kec. Sumur Bandung, Kota Bandung, Jawa Barat 40562",06.30–10.00,,0812-2426-1478,-6.9201453,107.6088192,https://www.google.com/maps/place/CITY+TOUR/data=!4m7!3m6!1s0x2e68fb4607c11887:0xe30ccfd5955cbf19!8m2!3d-6.9201453!4d107.6088192!16s%2Fg%2F11j23pw0gv!19sChIJhxjBB0b7aC4RGb9cldXPDOM?authuser=0&hl=id&rclk=1,True,Bandung,
Check Point Primajasa,"3,7","Jl. Raya Bandung - Garut No.28, Panenjoan, Kec. Cicalengka, Kabupaten Bandung, Jawa Barat 40395",,,,-6.9688665,107.8337397,https://www.google.com/maps/place/Check+Point+Primajasa/data=!4m7!3m6!1s0x2e68c5a28ed3915d:0xd62b112625cc9b33!8m2!3d-6.9688665!4d107.8337397!16s%2Fg%2F11h0vtlsy4!19sChIJXZHTjqLFaC4RM5vMJSYRK9Y?authuser=0&hl=id&rclk=1,True,Bandung,
Checkpoint DAMRI,"3,0","XVMJ+M46, Citaman, Kec. Nagreg, Kabupaten Bandung, Jawa Barat 40215",,,,-7.0158259,107.8802517,https://www.google.com/maps/place/Checkpoint+DAMRI/data=!4m7!3m6!1s0x2e68c963a0245d7f:0x72abfb3387c98e48!8m2!3d-7.0158259!4d107.8802517!16s%2Fg%2F11qqhxv784!19sChIJf10koGPJaC4RSI7JhzP7q3I?authuser=0&hl=id&rclk=1,True,Bandung,
Cheria Halal Holiday Bandung,"5,0","Jl. Rajamantri Kidul No.B.9, Turangga, Kec. Buahbatu, Kota Bandung, Jawa Barat 40236",09.00–17.00,,0819-3412-1791,-6.9443373,107.6304541,https://www.google.com/maps/place/Cheria+Halal+Holiday+Bandung/data=!4m7!3m6!1s0x2e68e98d6a6395a5:0x9416d2c0be5f60cb!8m2!3d-6.9443373!4d107.6304541!16s%2Fg%2F11t7x40x7r!19sChIJpZVjao3paC4Ry2BfvsDSFpQ?authuser=0&hl=id&rclk=1,True,Bandung,
Cipto travel,"5,0","2J6H+C2G, Dayeuhkolot, Kec. Dayeuhkolot, Kabupaten Bandung, Jawa Barat 40258",,,,-6.988905,107.6276233,https://www.google.com/maps/place/Cipto+travel/data=!4m7!3m6!1s0x2e68e99f57bb6cd3:0x26f465b32e20370!8m2!3d-6.988905!4d107.6276233!16s%2Fg%2F11kqq5z3ls!19sChIJ02y7V5_paC4RcAPiMltGbwI?authuser=0&hl=id&rclk=1,True,Bandung,
Citeureup sukamena,"5,0","Jl. Raya Bojongsoang No.1, Citeureup, Kec. Bojongsoang, Kabupaten Bandung, Jawa Barat 40257",,,,-6.9838797,107.6302487,https://www.google.com/maps/place/Citeureup+sukamena/data=!4m7!3m6!1s0x2e68e975f2fbfd6b:0x7a520065755485ce!8m2!3d-6.9838797!4d107.6302487!16s%2Fg%2F11scbm9t4d!19sChIJa_378nXpaC4RzoVUdWUAUno?authuser=0&hl=id&rclk=1,True,Bandung,
"CitiTrans travel , Taksi Blue Bird / Big Bird","4,5","Jl. Cihampelas No.156, Cipaganti, Kecamatan Coblong, Kota Bandung, Jawa Barat 40131",Buka 24 jam,,(022) 7538055,-6.8950926,107.6041713,"https://www.google.com/maps/place/CitiTrans+travel+,+Taksi+Blue+Bird+%2F+Big+Bird/data=!4m7!3m6!1s0x2e68e72f9a0692ff:0xf0ee35f55b3f0c6e!8m2!3d-6.8950926!4d107.6041713!16s%2Fg%2F11q23f8prw!19sChIJ_5IGmi_naC4Rbgw_W_U17vA?authuser=0&hl=id&rclk=1",True,Bandung,
Cititrans Ciwalk,"3,2","Jl. Cihampelas Walk No.1, Cipaganti, Kecamatan Coblong, Kota Bandung, Jawa Barat 40131",,http://www.cititrans.co.id/,0857-7389-3987,-6.8950224,107.6044311,https://www.google.com/maps/place/Cititrans+Ciwalk/data=!4m7!3m6!1s0x2e68e79e175a8c3b:0xfe8ccda0521e3b17!8m2!3d-6.8950224!4d107.6044311!16s%2Fg%2F11s5txbvzb!19sChIJO4xaF57naC4RFzseUqDNjP4?authuser=0&hl=id&rclk=1,True,Bandung,
Cititrans • Bandung (Suci),"3,0","Jl. Khp Hasan Mustopa No.119-125, Padasuka, Kec. Cibeunying Kidul, Kota Bandung, Jawa Barat 40125",Buka 24 jam,https://www.cititrans.co.id/,(021) 79171717,-6.9011907,107.6471091,https://www.google.com/maps/place/Cititrans+%E2%80%A2+Bandung+%28Suci%29/data=!4m7!3m6!1s0x2e68e74714d46f01:0xe122ef0866d75ce7!8m2!3d-6.9011907!4d107.6471091!16s%2Fg%2F11w8y8rh83!19sChIJAW_UFEfnaC4R51zXZgjvIuE?authuser=0&hl=id&rclk=1,True,Bandung,
Cititrans • Dipati Ukur (Bandung),"4,4","Jl. Dipati Ukur No.53, Lebakgede, Kecamatan Coblong, Kota Bandung, Jawa Barat 40132",Buka 24 jam,http://www.cititrans.co.id/,(021) 79171717,-6.8909783,107.6167791,https://www.google.com/maps/place/Cititrans+%E2%80%A2+Dipati+Ukur+%28Bandung%29/data=!4m7!3m6!1s0x2e68e65415bc0137:0xda70298083dcdc53!8m2!3d-6.8909783!4d107.6167791!16s%2Fg%2F1tdjlqtc!19sChIJNwG8FVTmaC4RU9zcg4ApcNo?authuser=0&hl=id&rclk=1,True,Bandung,
Cititrans • Trsn. Pasteur (Bandung),"4,2","Jl. DR. Djunjunan Dalam No.153, Pajajaran, Kec. Cicendo, Kota Bandung, Jawa Barat 40173",Buka 24 jam,http://www.cititrans.co.id/,(021) 79171717,-6.8926907,107.5835337,https://www.google.com/maps/place/Cititrans+%E2%80%A2+Trsn.+Pasteur+%28Bandung%29/data=!4m7!3m6!1s0x2e68e664acfa3ef7:0x20302cf586aaca6c!8m2!3d-6.8926907!4d107.5835337!16s%2Fm%2F0j2b070!19sChIJ9z76rGTmaC4RbMqqhvUsMCA?authuser=0&hl=id&rclk=1,True,Bandung,
City Trans Utama Bandung,"4,4","Jl. Soekarno-Hatta No.481, Cijagra, Kec. Lengkong, Kota Bandung, Jawa Barat 40265",08.30–16.00,,0812-8008-6838,-6.9488513,107.6227378,https://www.google.com/maps/place/City+Trans+Utama+Bandung/data=!4m7!3m6!1s0x2e68e91483fab235:0x15ba99c35be603ab!8m2!3d-6.9488513!4d107.6227378!16s%2Fg%2F11gnq93z6m!19sChIJNbL6gxTpaC4RqwPmW8OZuhU?authuser=0&hl=id&rclk=1,True,Bandung,
Counter Shuttle Primajasa Shuttle,"3,6","Jl. Dr. Djundjunan No.47, Pamoyanan, Kec. Cicendo, Kota Bandung, Jawa Barat 40173",,,0821-2345-4514,-6.8975331,107.5921957,https://www.google.com/maps/place/Counter+Shuttle+Primajasa+Shuttle/data=!4m7!3m6!1s0x2e68e7990a4da965:0xab1ddc6f8c9b024!8m2!3d-6.8975331!4d107.5921957!16s%2Fg%2F11fwc1dvht!19sChIJZalNCpnnaC4RJLDJ-MbdsQo?authuser=0&hl=id&rclk=1,True,Bandung,
Damri Cabang Bandung Pool III,"4,2","Pasir Kaliki, Kec. Cicendo, Kota Bandung, Jawa Barat",,,,-6.9126517,107.6010322,https://www.google.com/maps/place/Damri+Cabang+Bandung+Pool+III/data=!4m7!3m6!1s0x2e68e63e86fb0de1:0xa7e79ecbfdb3b704!8m2!3d-6.9126517!4d107.6010322!16s%2Fg%2F11t_sh332y!19sChIJ4Q37hj7maC4RBLez_cue56c?authuser=0&hl=id&rclk=1,True,Bandung,
Damri sudirman,"2,9","3HMC+MVV, Jl. Jend. Sudirman, Cibuntu, Kec. Bandung Kulon, Kota Bandung, Jawa Barat",,,,-6.9157602,107.5721725,https://www.google.com/maps/place/Damri+sudirman/data=!4m7!3m6!1s0x2e68e50054b72e29:0xe79f08d068d8c9c2!8m2!3d-6.9157602!4d107.5721725!16s%2Fg%2F11lv7h42vl!19sChIJKS63VADlaC4RwsnYaNAIn-c?authuser=0&hl=id&rclk=1,True,Bandung,
Day Trans Pasteur,"4,2","Jl. Dr. Djundjunan No.55B, Pajajaran, Kec. Cicendo, Kota Bandung, Jawa Barat 40173",Buka 24 jam,http://www.daytrans.co.id/,,-6.8972354,107.591737,https://www.google.com/maps/place/Day+Trans+Pasteur/data=!4m7!3m6!1s0x2e68e665e33e180d:0x4de8e7bddc261699!8m2!3d-6.8972354!4d107.591737!16s%2Fg%2F1pzv3kjks!19sChIJDRg-42XmaC4RmRYm3L3n6E0?authuser=0&hl=id&rclk=1,True,Bandung,
DayTrans Travel Dipatiukur,"4,5","Jl. Dipati Ukur No.107, Lebakgede, Kecamatan Coblong, Kota Bandung, Jawa Barat 40132",05.00–21.30,http://daytrans.co.id/,0815-1102-6767,-6.8856591,107.6142975,https://www.google.com/maps/place/DayTrans+Travel+Dipatiukur/data=!4m7!3m6!1s0x2e68e6567515eaf3:0xdc9dec1f44b77398!8m2!3d-6.8856591!4d107.6142975!16s%2Fg%2F11b6df9w__!19sChIJ8-oVdVbmaC4RmHO3RB_sndw?authuser=0&hl=id&rclk=1,True,Bandung,
Daytrans Buah Batu,"4,0","Jl. Terusan Buah Batu No.298, Kujangsari, Kec. Bandung Kidul, Kota Bandung, Jawa Barat 40287",05.00–21.00,http://www.daytrans.co.id/,0815-8511-6767,-6.9638416,107.6380845,https://www.google.com/maps/place/Daytrans+Buah+Batu/data=!4m7!3m6!1s0x2e68e9cbdad38599:0xeb3a666409e5b60b!8m2!3d-6.9638416!4d107.6380845!16s%2Fg%2F11k9pmgfk_!19sChIJmYXT2svpaC4RC7blCWRmOus?authuser=0&hl=id&rclk=1,True,Bandung,
Daytrans Cihampelas,"4,4","Jl. Cihampelas No.64c, Tamansari, Kec. Bandung Wetan, Kota Bandung, Jawa Barat 40116",05.00–20.30,http://www.daytrans.co.id/,0855-8556-767,-6.9018538,107.6045129,https://www.google.com/maps/place/Daytrans+Cihampelas/data=!4m7!3m6!1s0x2e68e6593a1a1acd:0x4603ebf78b7e2000!8m2!3d-6.9018538!4d107.6045129!16s%2Fg%2F1pzq5r7lv!19sChIJzRoaOlnmaC4RACB-i_frA0Y?authuser=0&hl=id&rclk=1,True,Bandung,
Dunia Jalanjalan,"4,9","Jl. Cipedes Tengah No.57, Sukagalih, Kec. Sukajadi, Kota Bandung, Jawa Barat 12160",11.00–21.00,http://www.duniajalanjalan.com/,0856-1873-345,-6.8845269,107.590483,https://www.google.com/maps/place/Dunia+Jalanjalan/data=!4m7!3m6!1s0x2e69f1694c8c8075:0x10639753b4990c78!8m2!3d-6.8845269!4d107.590483!16s%2Fg%2F1tl5_h1p!19sChIJdYCMTGnxaS4ReAyZtFOXYxA?authuser=0&hl=id&rclk=1,True,Bandung,
Exotic Java Trails,"4,5","Jl. Saturnus Utara XII No.1, Manjahlega, Kec. Rancasari, Kota Bandung, Jawa Barat 40286",08.30–17.00,,0813-9442-2121,-6.9505329,107.6654645,https://www.google.com/maps/place/Exotic+Java+Trails/data=!4m7!3m6!1s0x2e68e81fc240cfdd:0xc11c793776a9e19b!8m2!3d-6.9505329!4d107.6654645!16s%2Fg%2F11clg7m3yd!19sChIJ3c9Awh_oaC4Rm-Gpdjd5HME?authuser=0&hl=id&rclk=1,True,Bandung,
Frestour & Travel,"5,0","Komplek GBA 1, Blk. I No.46, Bojongsoang, Bandung Regency, West Java 40288",,https://frestour.com/,0812-2334-4117,-6.985795,107.634972,https://www.google.com/maps/place/Frestour+%26+Travel/data=!4m7!3m6!1s0x2e68e863900d2af9:0xd2c6009d165811dc!8m2!3d-6.985795!4d107.634972!16s%2Fg%2F11g_402xt!19sChIJ-SoNkGPoaC4R3BFYFp0AxtI?authuser=0&hl=id&rclk=1,True,Bandung,
Gema Raudhah,"5,0","Jl. L. L. R.E. Martadinata No.110, Cihapit, Kec. Bandung Wetan, Kota Bandung, Jawa Barat 40114",09.00–17.00,,0857-2357-5670,-6.909786,107.6255049,https://www.google.com/maps/place/Gema+Raudhah/data=!4m7!3m6!1s0x2e68e7cbb380502d:0x97c1594ffc5badcb!8m2!3d-6.909786!4d107.6255049!16s%2Fg%2F12hq1sssw!19sChIJLVCAs8vnaC4Ry61b_E9ZwZc?authuser=0&hl=id&rclk=1,True,Bandung,
Gptrans Holiday,"4,7","Griya Bandung Asri 2, Blk. E5 No.2, Cipagalo, Kec. Bojongsoang, Kabupaten Bandung, Jawa Barat 40287",Buka 24 jam,,0877-0708-1984,-6.9705206,107.6507243,https://www.google.com/maps/place/Gptrans+Holiday/data=!4m7!3m6!1s0x2e68e9e334db8233:0x4468494b4021bb1c!8m2!3d-6.9705206!4d107.6507243!16s%2Fg%2F11l3r8dl05!19sChIJM4LbNOPpaC4RHLshQEtJaEQ?authuser=0&hl=id&rclk=1,True,Bandung,
Gracias Shuttle,"4,6","Pajajaran, Kec. Cicendo, Kota Bandung, Jawa Barat 40173",Buka 24 jam,http://www.graciasshuttle.co.id/,0821-5500-7979,-6.8937775,107.5860838,https://www.google.com/maps/place/Gracias+Shuttle/data=!4m7!3m6!1s0x2e68e7d700ec2195:0x402223c1e3a68046!8m2!3d-6.8937775!4d107.5860838!16s%2Fg%2F11vckhll5c!19sChIJlSHsANfnaC4RRoCm48EjIkA?authuser=0&hl=id&rclk=1,True,Bandung,
Gunung Harta Bandung Bali,"4,8","Terminal Bus Cicaheum, Cicaheum, Kec. Kiaracondong, Kabupaten Bandung, Jawa Barat 40282",,,0812-2263-5001,-6.9029096,107.6560994,https://www.google.com/maps/place/Gunung+Harta+Bandung+Bali/data=!4m7!3m6!1s0x2e68e736b3bc63af:0x993e2df432b43ca!8m2!3d-6.9029096!4d107.6560994!16s%2Fg%2F11w9cmq9fx!19sChIJr2O8szbnaC4RykMrQ9_ikwk?authuser=0&hl=id&rclk=1,True,Bandung,
Gunung Harta Cicaheum,"5,0","Jl. A. Yani No.957, Pasirlayung, Kec. Kiaracondong, Kota Bandung, Jawa Barat 40282",Buka 24 jam,,0821-2127-5719,-6.9023064,107.6569595,https://www.google.com/maps/place/Gunung+Harta+Cicaheum/data=!4m7!3m6!1s0x2e68e7dd6414ec11:0x1e0647e83260e623!8m2!3d-6.9023064!4d107.6569595!16s%2Fg%2F11rmt2_yc_!19sChIJEewUZN3naC4RI-ZgMuhHBh4?authuser=0&hl=id&rclk=1,True,Bandung,
Jackal Holiday Luxury Shuttle,"3,8","Jl. DR. Djunjunan Dalam No.87, Pajajaran, Kec. Cicendo, Kota Bandung, Jawa Barat 40173",,http://shuttle.jackalholidays.com/,(021) 50600678,-6.8962801,107.5899605,https://www.google.com/maps/place/Jackal+Holiday+Luxury+Shuttle/data=!4m7!3m6!1s0x2e68e7ce96af5e87:0x8d1f816830d714cc!8m2!3d-6.8962801!4d107.5899605!16s%2Fg%2F11gbqp06qt!19sChIJh16vls7naC4RzBTXMGiBH40?authuser=0&hl=id&rclk=1,True,Bandung,
Jackal Holiday UNIKOM Dipatikukur,"3,8","Jl. Dipati Ukur No.89, Lebakgede, Kecamatan Coblong, Kota Bandung, Jawa Barat 40132",,,,-6.8874759,107.6148685,https://www.google.com/maps/place/Jackal+Holiday+UNIKOM+Dipatikukur/data=!4m7!3m6!1s0x2e68e7c241d0c01b:0x3219024190bbe806!8m2!3d-6.8874759!4d107.6148685!16s%2Fg%2F11vt4tdw86!19sChIJG8DQQcLnaC4RBui7kEECGTI?authuser=0&hl=id&rclk=1,True,Bandung,
Jackal Holidays,"4,5","Jl. Soekarno-Hatta No.593, Kb. Kangkung, Kec. Kiaracondong, Kota Bandung, Jawa Barat 40284",08.30–16.30,,(022) 7302244,-6.9444053,107.6430083,https://www.google.com/maps/place/Jackal+Holidays/data=!4m7!3m6!1s0x2e68e86b04b15893:0x33fc4a36f5fb5fbe!8m2!3d-6.9444053!4d107.6430083!16s%2Fg%2F1hm3bvwmw!19sChIJk1ixBGvoaC4Rvl_79TZK_DM?authuser=0&hl=id&rclk=1,True,Bandung,
Jackal Holidays Luxury Shuttle (DU 89),"4,2","Jl. Dipati Ukur No.89, Lebakgede, Kecamatan Coblong, Kota Bandung, Jawa Barat 40132",Buka 24 jam,,0877-2255-1854,-6.8874849,107.614943,https://www.google.com/maps/place/Jackal+Holidays+Luxury+Shuttle+%28DU+89%29/data=!4m7!3m6!1s0x2e68e79780a9aa31:0xa635fe391232ad50!8m2!3d-6.8874849!4d107.614943!16s%2Fg%2F11j0tr8yd_!19sChIJMaqpgJfnaC4RUK0yEjn-NaY?authuser=0&hl=id&rclk=1,True,Bandung,
Jackal Holidays Luxury Shuttle (Kiaracondong),"4,3","Jl. Kiara Condong No.473, Kb. Kangkung, Kec. Kiaracondong, Kota Bandung, Jawa Barat 40275",Buka 24 jam,http://shuttle.jackalholidays.com/,(021) 50600678,-6.9440254,107.6421811,https://www.google.com/maps/place/Jackal+Holidays+Luxury+Shuttle+%28Kiaracondong%29/data=!4m7!3m6!1s0x2e68e9ce265390a5:0x8736102e31b780f7!8m2!3d-6.9440254!4d107.6421811!16s%2Fg%2F11dfqtv9wd!19sChIJpZBTJs7paC4R94C3MS4QNoc?authuser=0&hl=id&rclk=1,True,Bandung,
Jackal Holidays Luxury Shuttle (Kiaracondong),"1,0","Jl. Kiara Condong No.473, Kb. Kangkung, Kec. Kiaracondong, Kota Bandung, Jawa Barat 40275",Buka 24 jam,http://shuttle.jackalholidays.com/,(021) 50600678,-6.9440254,107.6421811,https://www.google.com/maps/place/Jackal+Holidays+Luxury+Shuttle+%28Kiaracondong%29/data=!4m7!3m6!1s0x2e68e9ce265390a5:0x8736102e31b780f7!8m2!3d-6.9440254!4d107.6421811!16s%2Fg%2F11dfqtv9wd!19sChIJpZBTJs7paC4R94C3MS4QNoc?authuser=0&hl=id&rclk=1,True,Bandung,
Jackal Holidays Luxury Shuttle Buah Batu,"3,8","Jl. Terusan Buah Batu No.261, Kujangsari, Kec. Bandung Kidul, Kota Bandung, Jawa Barat 40287",03.30–19.30,http://shuttle.jackalholidays.com/,,-6.9608791,107.6390507,https://www.google.com/maps/place/Jackal+Holidays+Luxury+Shuttle+Buah+Batu/data=!4m7!3m6!1s0x2e68e9004eb20a8f:0x86e282ead9197854!8m2!3d-6.9608791!4d107.6390507!16s%2Fg%2F11w4ty18lr!19sChIJjwqyTgDpaC4RVHgZ2eqC4oY?authuser=0&hl=id&rclk=1,True,Bandung,
Japantrips,"5,0","Jl. Jend. Sudirman No.346, Ciroyom, Kec. Andir, Kota Bandung, Jawa Barat 40182",09.00–17.00,,0811-2346-680,-6.9191235,107.591366,https://www.google.com/maps/place/Japantrips/data=!4m7!3m6!1s0x2e68e757646f8afb:0xcef6492e0d6d7597!8m2!3d-6.9191235!4d107.591366!16s%2Fg%2F11gyccb2nw!19sChIJ-4pvZFfnaC4Rl3VtDS5J9s4?authuser=0&hl=id&rclk=1,True,Bandung,
KPM Trans Buahbatu,"4,6","2JPQ+RCP, Jl. Terusan Buah Batu, Kujangsari, Kec. Bandung Kidul, Kota Bandung, Jawa Barat 40287",05.00–19.15,,0822-4082-7508,-6.9629112,107.6385662,https://www.google.com/maps/place/KPM+Trans+Buahbatu/data=!4m7!3m6!1s0x2e68e9bc48c36a55:0x9e2bd838143f6c59!8m2!3d-6.9629112!4d107.6385662!16s%2Fg%2F11rfr68v90!19sChIJVWrDSLzpaC4RWWw_FDjYK54?authuser=0&hl=id&rclk=1,True,Bandung,
Kantor Kramat Djati Bandung,"5,0","3HJF+2MM, Cibuntu, Kec. Bandung Kulon, Kota Bandung, Jawa Barat 40212",08.00–17.00,,0852-8007-2684,-6.9199386,107.5742117,https://www.google.com/maps/place/Kantor+Kramat+Djati+Bandung/data=!4m7!3m6!1s0x2e68e70040bb1d81:0x63c078d1811065a2!8m2!3d-6.9199386!4d107.5742117!16s%2Fg%2F11ld9s7rkz!19sChIJgR27QADnaC4RomUQgdF4wGM?authuser=0&hl=id&rclk=1,True,Bandung,
Kantor Pemasaran Damri,"3,6","3JQ3+328, Jl. Kebon Kawung, Pasir Kaliki, Kec. Cicendo, Kota Bandung, Jawa Barat 40171",,,(021) 1500825,-6.9123434,107.6025756,https://www.google.com/maps/place/Kantor+Pemasaran+Damri/data=!4m7!3m6!1s0x2e68e63ebcd0934d:0xdc60e0a051e23077!8m2!3d-6.9123434!4d107.6025756!16s%2Fg%2F11b6bsdsmn!19sChIJTZPQvD7maC4RdzDiUaDgYNw?authuser=0&hl=id&rclk=1,True,Bandung,
Kantor Pusat & Terminal Bus Kramat Djati,"5,0","Jl. Ambon No.3, Citarum, Kec. Bandung Wetan, Kota Bandung, Jawa Barat 40115",,,(022) 4200858,-6.9084145,107.6144036,https://www.google.com/maps/place/Kantor+Pusat+%26+Terminal+Bus+Kramat+Djati/data=!4m7!3m6!1s0x2e68e636142071ed:0xfc32eefc0fa39878!8m2!3d-6.9084145!4d107.6144036!16s%2Fg%2F1tg83s0m!19sChIJ7XEgFDbmaC4ReJijD_zuMvw?authuser=0&hl=id&rclk=1,True,Bandung,
Khalifah Tour,"4,7","Jl. Brigadir Jend. Katamso No.11, Cihaur Geulis, Kec. Cibeunying Kaler, Kota Bandung, Jawa Barat 40122",08.30–17.00,,0813-2000-8448,-6.9052135,107.6308074,https://www.google.com/maps/place/Khalifah+Tour/data=!4m7!3m6!1s0x2e68e7b7b6d543bf:0x434ad0906b77c620!8m2!3d-6.9052135!4d107.6308074!16s%2Fg%2F1tg97sf4!19sChIJv0PVtrfnaC4RIMZ3a5DQSkM?authuser=0&hl=id&rclk=1,True,Bandung,
Kramat Djati,"4,0","3JP2+WHX, Jl. Kebon Kawung, Pasir Kaliki, Kec. Cicendo, Kota Bandung, Jawa Barat 40171",,,(022) 4203007,-6.9126298,107.6014759,https://www.google.com/maps/place/Kramat+Djati/data=!4m7!3m6!1s0x2e68e63e84db9723:0xdfb9753aa35546a1!8m2!3d-6.9126298!4d107.6014759!16s%2Fg%2F11b6bmknwb!19sChIJI5fbhD7maC4RoUZVozp1ud8?authuser=0&hl=id&rclk=1,True,Bandung,
Kramat Djati,"3,3","Jl. Garuda No.15, Garuda, Kec. Andir, Kota Bandung, Jawa Barat 40184",,,,-6.9161649,107.5771816,https://www.google.com/maps/place/Kramat+Djati/data=!4m7!3m6!1s0x2e68e609a9b15777:0x246f9566fdaa6365!8m2!3d-6.9161649!4d107.5771816!16s%2Fg%2F11c6018171!19sChIJd1exqQnmaC4RZWOq_WaVbyQ?authuser=0&hl=id&rclk=1,True,Bandung,
Kramat Djati Tour,"5,0","Paskal Hyper Square Blok A-46, JL. Pasir Kaliki, Pasir Kaliki, Kec. Cicendo, Kota Bandung, Jawa Barat 40254",,,(022) 70640010,-6.9067943,107.601167,https://www.google.com/maps/place/Kramat+Djati+Tour/data=!4m7!3m6!1s0x2e68e6408b7c651f:0x73e22af05beb1ca5!8m2!3d-6.9067943!4d107.601167!16s%2Fg%2F1pzs_9g3v!19sChIJH2V8i0DmaC4RpRzrW_Aq4nM?authuser=0&hl=id&rclk=1,True,Bandung,
Kramat Jati,"5,0","Terminal Bus Cicaheum, Jl. A. Yani, Cicaheum, Kec. Kiaracondong, Kabupaten Bandung, Jawa Barat 40282",,,(022) 93089513,-6.9023048,107.6570705,https://www.google.com/maps/place/Kramat+Jati/data=!4m7!3m6!1s0x2e68e792740f0dab:0x5cce54ae892d91c5!8m2!3d-6.9023048!4d107.6570705!16s%2Fg%2F11b630k9p4!19sChIJqw0PdJLnaC4RxZEtia5Uzlw?authuser=0&hl=id&rclk=1,True,Bandung,"Palembang, Metro, Terbanggi Besar, Negara"
Kramatdjati,"3,8","Jl. Leuwi Panjang No.15 A, Situsaeur, Kec. Bojongloa Kidul, Kota Bandung, Jawa Barat 40235",,,(022) 70689316,-6.942764,107.596296,https://www.google.com/maps/place/Kramatdjati/data=!4m7!3m6!1s0x2e68e8bdbfc85745:0xaf98918b14927dde!8m2!3d-6.942764!4d107.596296!16s%2Fg%2F1pzw15tw1!19sChIJRVfIv73oaC4R3n2SFIuRmK8?authuser=0&hl=id&rclk=1,True,Bandung,
Kramatdjati,"4,6","3P8F+889, JL. Raya Bunderan, Cibiru, Cibiru Wetan, Kec. Cileunyi, Kabupaten Bandung, Jawa Barat 40615",,,0813-2211-2235,-6.934202,107.723368,https://www.google.com/maps/place/Kramatdjati/data=!4m7!3m6!1s0x2e68c325f5f342af:0x31197e38b5f72efd!8m2!3d-6.934202!4d107.723368!16s%2Fg%2F1pzrpl2vh!19sChIJr0Lz9SXDaC4R_S73tTh-GTE?authuser=0&hl=id&rclk=1,True,Bandung,
Kramatdjati,"4,0","Jl. Kiara Condong No.432, Kebun Jayanti, Kec. Kiaracondong, Kota Bandung, Jawa Barat 40281",,,(022) 91138845,-6.9257501,107.6451803,https://www.google.com/maps/place/Kramatdjati/data=!4m7!3m6!1s0x2e68e7dfe1d36c89:0x4055945134f9cdf9!8m2!3d-6.9257501!4d107.6451803!16s%2Fg%2F1pzpxb1cn!19sChIJiWzT4d_naC4R-c35NFGUVUA?authuser=0&hl=id&rclk=1,True,Bandung,
Kramatdjati,"4,0","3M55+HWX, Jl. Soekarno-Hatta, Sekejati, Kec. Buahbatu, Kota Bandung, Jawa Barat 40286",,,(022) 6005269,-6.9410145,107.6598725,https://www.google.com/maps/place/Kramatdjati/data=!4m7!3m6!1s0x2e68e81a32edef67:0x8fe447981b11fdd0!8m2!3d-6.9410145!4d107.6598725!16s%2Fg%2F11bc7sfb6q!19sChIJZ-_tMhroaC4R0P0RG5hH5I8?authuser=0&hl=id&rclk=1,True,Bandung,
LOKET UTAMA EPA STAR BANDUNG,"3,6","Jl. Batununggal Indah Raya No.23A, Batununggal, Kec. Bandung Kidul, Kota Bandung, Jawa Barat 40266",,,0812-2255-6009,-6.9529582,107.6235076,https://www.google.com/maps/place/LOKET+UTAMA+EPA+STAR+BANDUNG/data=!4m7!3m6!1s0x2e68e961860f08fb:0x506303035e6c57f4!8m2!3d-6.9529582!4d107.6235076!16s%2Fg%2F11sbmxx4t3!19sChIJ-wgPhmHpaC4R9FdsXgMDY1A?authuser=0&hl=id&rclk=1,True,Bandung,
Lintas Shuttle Bandung Trade Center,"4,3","Bandung Trade Center, Jl. Dr. Djundjunan No.143-149 Lt. Ground, Pajajaran, Kec. Cicendo, Kota Bandung, Jawa Barat 40174",Buka 24 jam,https://mylintas.co.id/,0855-1500-646,-6.8929947,107.5848809,https://www.google.com/maps/place/Lintas+Shuttle+Bandung+Trade+Center/data=!4m7!3m6!1s0x2e68e645bfffffe3:0xe3417684a4da801d!8m2!3d-6.8929947!4d107.5848809!16s%2Fg%2F1hm3jmtmc!19sChIJ4___v0XmaC4RHYDapIR2QeM?authuser=0&hl=id&rclk=1,True,Bandung,
Lintas Shuttle Buah Batu,"4,3","Jl. Terusan Buah Batu No.43, Batununggal, Kec. Bandung Kidul, Kota Bandung, Jawa Barat 40266",04.30–20.30,http://www.mylintas.co.id/,0821-2086-6114,-6.9518462,107.6374187,https://www.google.com/maps/place/Lintas+Shuttle+Buah+Batu/data=!4m7!3m6!1s0x2e68e94ab71b310d:0x7727ef7be4261be5!8m2!3d-6.9518462!4d107.6374187!16s%2Fg%2F11scb__jcm!19sChIJDTEbt0rpaC4R5Rsm5HvvJ3c?authuser=0&hl=id&rclk=1,True,Bandung,
Lintas Shuttle Dago Point,"5,0","Jl. Ir. H. Juanda No.170, Lebakgede, Kecamatan Coblong, Kota Bandung, Jawa Barat 40132",Buka 24 jam,https://mylintas.co.id/,,-6.8855109,107.6139418,https://www.google.com/maps/place/Lintas+Shuttle+Dago+Point/data=!4m7!3m6!1s0x2e68e6f8eba0b115:0xd510abb6c68a618e!8m2!3d-6.8855109!4d107.6139418!16s%2Fg%2F11f01tl73w!19sChIJFbGg6_jmaC4RjmGKxrarENU?authuser=0&hl=id&rclk=1,True,Bandung,
Lintas Shuttle Drop Off Pasteur,"5,0","Jl. Dr. Djunjunan No.158, Sukagalih, Kec. Sukajadi, Kota Bandung, Jawa Barat 40173",Buka 24 jam,http://mylintas.co.id/,(022) 6020500,-6.892032,107.5835766,https://www.google.com/maps/place/Lintas+Shuttle+Drop+Off+Pasteur/data=!4m7!3m6!1s0x2e68e665dae191b7:0x304496ec3ae4ce0a!8m2!3d-6.892032!4d107.5835766!16s%2Fg%2F1tdhp3ml!19sChIJt5Hh2mXmaC4RCs7kOuyWRDA?authuser=0&hl=id&rclk=1,True,Bandung,
Lintas Shuttle MIM,"4,1","3M55+JCC SOEKARNO HATTA, Jl. Soekarno-Hatta, Batununggal, Buahbatu, Bandung City, West Java",Buka 24 jam,https://www.mylintas.co.id/,0821-2086-6113,-6.9409272,107.65851,https://www.google.com/maps/place/Lintas+Shuttle+MIM/data=!4m7!3m6!1s0x2e68e9fd4effd6dd:0xe133f30745c659ab!8m2!3d-6.9409272!4d107.65851!16s%2Fg%2F11kq1p7r38!19sChIJ3db_Tv3paC4Rq1nGRQfzM-E?authuser=0&hl=id&rclk=1,True,Bandung,
MABAIS TOUR HAJI UMROH,"5,0","Buah Batu Square, Blk. A No.10, Cipagalo, Kec. Bojongsoang, Kabupaten Bandung, Jawa Barat 40287",Buka 24 jam,https://tourtravel.mabais.com/,0851-8300-5248,-6.9662991,107.6380844,https://www.google.com/maps/place/MABAIS+TOUR+HAJI+UMROH/data=!4m7!3m6!1s0x2e68e903a34af283:0x84952f133104d267!8m2!3d-6.9662991!4d107.6380844!16s%2Fg%2F11w3l0n_ms!19sChIJg_JKowPpaC4RZ9IEMRMvlYQ?authuser=0&hl=id&rclk=1,True,Bandung,
MS Shuttle Buah Batu,"4,4","Jl. Terusan Buah Batu No.273KujangsariKec, Kec. Bandung Kidul, Kota Bandung, Jawa Barat 40287",,,0813-6212-8083,-6.9626978,107.6386413,https://www.google.com/maps/place/MS+Shuttle+Buah+Batu/data=!4m7!3m6!1s0x2e68e90017a9edeb:0x1535b35ca6896881!8m2!3d-6.9626978!4d107.6386413!16s%2Fg%2F11w24b9hy1!19sChIJ6-2pFwDpaC4RgWiJplyzNRU?authuser=0&hl=id&rclk=1,True,Bandung,
Magnus Wisata Tour & Travel,"4,3","JL Sukahaji, No. 129, Sukarasa, Sukasari, Gegerkalong, Kec. Sukasari, Kota Bandung, Jawa Barat 40152",,,(022) 2006750,-6.8702197,107.592888,https://www.google.com/maps/place/Magnus+Wisata+Tour+%26+Travel/data=!4m7!3m6!1s0x2e68e6983351c85f:0x3420898c999afa6d!8m2!3d-6.8702197!4d107.592888!16s%2Fg%2F11b6dn4_pc!19sChIJX8hRM5jmaC4RbfqamYyJIDQ?authuser=0&hl=id&rclk=1,True,Bandung,
Maqdis Travel Bandung,"4,8","Metro Indah Mall Blok D No. 20, Jl. Soekarno-Hatta No.590, Sekejati, Kec. Buahbatu, Kota Bandung, Jawa Barat 40286",08.00–16.00,https://maqdistravel.com/,(022) 7536272,-6.941497,107.658126,https://www.google.com/maps/place/Maqdis+Travel+Bandung/data=!4m7!3m6!1s0x2e68e81a18de840b:0x506ebf119c8a118!8m2!3d-6.941497!4d107.658126!16s%2Fg%2F1pzv3kjlt!19sChIJC4TeGBroaC4RGKHIGfHrBgU?authuser=0&hl=id&rclk=1,True,Bandung,
Mitra Baraya Trans Cililin,"5,0","Kp Jl. Sasak Bubur No.44, RT.04 rw10, Cihampelas, Kec. Cihampelas, Kabupaten Bandung Barat, Jawa Barat 40562",Buka 24 jam,https://www.facebook.com/profile.php?id=61571108990228&mibextid=ZbWKwL,0821-8288-4547,-6.9265991,107.4782568,https://www.google.com/maps/place/Mitra+Baraya+Trans+Cililin/data=!4m7!3m6!1s0x2e68f1006f8fa377:0x455310a5df589f54!8m2!3d-6.9265991!4d107.4782568!16s%2Fg%2F11ld2cp8v4!19sChIJd6OPbwDxaC4RVJ9Y36UQU0U?authuser=0&hl=id&rclk=1,True,Bandung,
Nata Tours,"4,0","Jl. Karapitan No.108, Cikawao, Kec. Lengkong, Kota Bandung, Jawa Barat 40261",08.30–21.00,,(022) 4212345,-6.9301138,107.6159246,https://www.google.com/maps/place/Nata+Tours/data=!4m7!3m6!1s0x2e68e8818134ca49:0xd1e62fed13b1ce91!8m2!3d-6.9301138!4d107.6159246!16s%2Fg%2F1pzwbfp5q!19sChIJSco0gYHoaC4Rkc6xE-0v5tE?authuser=0&hl=id&rclk=1,True,Bandung,
Naz holiday tour and travel Bandung,"5,0","Jl. Parakan Saat No.49, RT.02/RW.06, Cisaranten Endah, Kec. Arcamanik, Kota Bandung, Jawa Barat 40293",Buka 24 jam,,0821-1617-7707,-6.9257493,107.6691263,https://www.google.com/maps/place/Naz+holiday+tour+and+travel+Bandung/data=!4m7!3m6!1s0x2e68c3a6b5dc3a69:0xf738748bfa6de9e2!8m2!3d-6.9257493!4d107.6691263!16s%2Fg%2F11fk42752f!19sChIJaTrctabDaC4R4ult-ot0OPc?authuser=0&hl=id&rclk=1,True,Bandung,
Nita Laundry,"5,0","Jl. Sukabirus No.40-17, Citeureup, Kec. Dayeuhkolot, Kabupaten Bandung, Jawa Barat 40257",08.00–21.30,,0821-2519-5121,-6.9781294,107.6324619,https://www.google.com/maps/place/Nita+Laundry/data=!4m7!3m6!1s0x2e68e9000341f50f:0xac91a4bc3731cb92!8m2!3d-6.9781294!4d107.6324619!16s%2Fg%2F11lf7bftrn!19sChIJD_VBAwDpaC4RkssxN7ykkaw?authuser=0&hl=id&rclk=1,True,Bandung,
PO. Kramat Djati,"3,3","Jl. Raya Banjaran Barat No.552, RT.01/RW.RW, Bojongmanggu, Kec. Pameungpeuk, Kabupaten Bandung, Jawa Barat 40376",,,0813-2148-9142,-7.0283313,107.593997,https://www.google.com/maps/place/PO.+Kramat+Djati/data=!4m7!3m6!1s0x2e68ebdcebcbee1b:0x976f065821211ee5!8m2!3d-7.0283313!4d107.593997!16s%2Fg%2F1pzppzzt1!19sChIJG-7L69zraC4R5R4hIVgGb5c?authuser=0&hl=id&rclk=1,True,Bandung,
PO.Gunung Harta (Kebon Kawung Bandung),"5,0","Jl. Kebon Kawung No.49, Pasir Kaliki, Kec. Cicendo, Kota Bandung, Jawa Barat 40171",08.00–15.00,https://ghtiket.solutions/online,0823-2146-3328,-6.9124288,107.5994491,https://www.google.com/maps/place/PO.Gunung+Harta+%28Kebon+Kawung+Bandung%29/data=!4m7!3m6!1s0x2e68e63e73d0316d:0x9db22fcce2dd454f!8m2!3d-6.9124288!4d107.5994491!16s%2Fg%2F11c7t288pl!19sChIJbTHQcz7maC4RT0Xd4swvsp0?authuser=0&hl=id&rclk=1,True,Bandung,
POS Kontrol bus Primajasa,"3,7","Jl. Raya Rancaekek - Garut No.29, Tenjolaya, Kec. Cicalengka, Kabupaten Bandung, Jawa Barat 40395",,,,-6.9741305,107.8380404,https://www.google.com/maps/place/POS+Kontrol+bus+Primajasa/data=!4m7!3m6!1s0x2e68c53837596c95:0xa8f489ab04ba46a1!8m2!3d-6.9741305!4d107.8380404!16s%2Fg%2F11q8w0tlw1!19sChIJlWxZNzjFaC4RoUa6BKuJ9Kg?authuser=0&hl=id&rclk=1,True,Bandung,
PT LINTAS SATU VISI,"4,9","Selatan Blok F 12, Jl. Podomoro Boulevard Utara",09.00–17.00,http://liv.co.id/,(022) 21000234,-6.9769141,107.6412376,https://www.google.com/maps/place/PT+LINTAS+SATU+VISI/data=!4m7!3m6!1s0x2e68e94a18e3f255:0x71e20b5a05784f9b!8m2!3d-6.9769141!4d107.6412376!16s%2Fg%2F11nmmdn3pt!19sChIJVfLjGErpaC4Rm094BVoL4nE?authuser=0&hl=id&rclk=1,True,Bandung,
PT PAHALA KENCANA AGEN SOREANG,"5,0","XG9H+X99, Soreang, Kec. Soreang, Kabupaten Bandung, Jawa Barat 40911",,,,-7.030087,107.5284985,https://www.google.com/maps/place/PT+PAHALA+KENCANA+AGEN+SOREANG/data=!4m7!3m6!1s0x2e68ec349656ab77:0x7547b739d8f93b5!8m2!3d-7.030087!4d107.5284985!16s%2Fg%2F11csrs4fk_!19sChIJd6tWljTsaC4RtZOPnXN7VAc?authuser=0&hl=id&rclk=1,True,Bandung,
PT. Pahala Kencana Terminal Cicaheum,"4,1","Jl. Pahala Kencana No.212, Pasirlayung, Kec. Cibeunying Kidul, Kota Bandung, Jawa Barat 40192",,http://pahalakencana.co.id/,0823-1589-2012,-6.9023164,107.6570532,https://www.google.com/maps/place/PT.+Pahala+Kencana+Terminal+Cicaheum/data=!4m7!3m6!1s0x2e68e7927410ec0d:0xfd55e147f9ab74b1!8m2!3d-6.9023164!4d107.6570532!16s%2Fg%2F11b62v0zl3!19sChIJDewQdJLnaC4RsXSr-UfhVf0?authuser=0&hl=id&rclk=1,True,Bandung,"Jakarta, Bekasi, Bogor, Depok, Cirebon, Denpasar (Bali), Surabaya, Malang"
PT. SURYAPUTRA ANUGERAH (Sewa Bus Pariwisata Suryaputra),"5,0","Jl. Soekarno-Hatta No.269, Kb. Lega, Kec. Bojongloa Kidul, Kota Bandung, Jawa Barat 40235",08.00–17.00,https://suryaputra.co/,(022) 5203905,-6.9470921,107.5978346,https://www.google.com/maps/place/PT.+SURYAPUTRA+ANUGERAH+%28Sewa+Bus+Pariwisata+Suryaputra%29/data=!4m7!3m6!1s0x2e68e814641f8e91:0x5423747e1152caf8!8m2!3d-6.9470921!4d107.5978346!16s%2Fg%2F1tmmbl8v!19sChIJkY4fZBToaC4R-MpSEX50I1Q?authuser=0&hl=id&rclk=1,True,Bandung,
PT.GRACIAS ANUGERAH SEJAHTERA,"4,6","Jl. Jurang No.11, Pasteur, Kec. Sukajadi, Kota Bandung, Jawa Barat 40161",09.00–17.00,,0877-6677-8889,-6.889589,107.600054,https://www.google.com/maps/place/PT.GRACIAS+ANUGERAH+SEJAHTERA/data=!4m7!3m6!1s0x2e68e65fb1e14b29:0xd7ca1c188b3e3322!8m2!3d-6.889589!4d107.600054!16s%2Fg%2F11c1t_l8b2!19sChIJKUvhsV_maC4RIjM-ixgcytc?authuser=0&hl=id&rclk=1,True,Bandung,
Pahala Kencana,"4,0","3H3R+F4V, Jl. Soekarno-Hatta, Kb. Lega, Kec. Bojongloa Kidul, Kota Bandung, Jawa Barat 40235",,,0888-6215-696,-6.9462541,107.5903089,https://www.google.com/maps/place/Pahala+Kencana/data=!4m7!3m6!1s0x2e68e8b917a2f2d1:0x21160cddbb978ba2!8m2!3d-6.9462541!4d107.5903089!16s%2Fg%2F1hm61hddc!19sChIJ0fKiF7noaC4RoouXu90MFiE?authuser=0&hl=id&rclk=1,True,Bandung,"Jakarta, Bekasi, Bogor, Depok, Cirebon, Denpasar (Bali), Surabaya, Malang"
Pahala Kencana CARINGIN 186,"4,0","Sebrang ruko taman surya Jl. Soekarno-Hatta No.186, Babakan Ciparay, Kec. Babakan Ciparay, Kota Bandung, Jawa Barat 40222",08.00–16.00,https://bit.ly/3COkGqv,0813-2107-8823,-6.9388541,107.5802651,https://www.google.com/maps/place/Pahala+Kencana+CARINGIN+186/data=!4m7!3m6!1s0x2e68e8ae09bcac3f:0x8d47c8075803aa17!8m2!3d-6.9388541!4d107.5802651!16s%2Fg%2F11bbyg8ssr!19sChIJP6y8Ca7oaC4RF6oDWAfIR40?authuser=0&hl=id&rclk=1,True,Bandung,"Jakarta, Bekasi, Bogor, Depok, Cirebon, Denpasar (Bali), Surabaya, Malang"
Pahala Kencana Paramon,"5,0","Jl. Raya Bandung - Garut Jl. Rancaekek No.km.24 5, Sindangpakuon, Kec. Cimanggung, Kabupaten Sumedang, Jawa Barat 45364",,http://pahalakencana.co.id/,0882-0018-01954,-6.9664965,107.8220701,https://www.google.com/maps/place/Pahala+Kencana+Paramon/data=!4m7!3m6!1s0x2e68c5a8ca915d0b:0xab9260ba8a4666b2!8m2!3d-6.9664965!4d107.8220701!16s%2Fg%2F11c20sptx5!19sChIJC12RyqjFaC4RsmZGirpgkqs?authuser=0&hl=id&rclk=1,True,Bandung,"Jakarta, Bekasi, Bogor, Depok, Cirebon, Denpasar (Bali), Surabaya, Malang"
"Pahala Kencana, TAM & Gunung Harta Caringin SPBU","4,1","Sebrang SPBU Caringin, Jl. Soekarno-Hatta No.187 B, Babakan Ciparay, Kec. Babakan Ciparay, Kota Bandung, Jawa Barat 40233",,https://wa.me/6282126494763,0812-2269-7888,-6.9410245,107.5822975,"https://www.google.com/maps/place/Pahala+Kencana,+TAM+%26+Gunung+Harta+Caringin+SPBU/data=!4m7!3m6!1s0x2e68c3271dd44bab:0xebae8d7cc816c92c!8m2!3d-6.9410245!4d107.5822975!16s%2Fg%2F11fmbb1gp8!19sChIJq0vUHSfDaC4RLMkWyHyNrus?authuser=0&hl=id&rclk=1",True,Bandung,"Jakarta, Bekasi, Bogor, Depok, Cirebon, Denpasar (Bali), Surabaya, Malang"
Pahala Kencana. PT - Penjualan (Kebon Jati),"4,0","JL. Kebon Jati No. 90, Bandung - West Java, Kebon Gedang, Batununggal, Bandung City, West Java 40274",,,(022) 7835656,-6.928759,107.642875,https://www.google.com/maps/place/Pahala+Kencana.+PT+-+Penjualan+%28Kebon+Jati%29/data=!4m7!3m6!1s0x2e68e63d0378ff1d:0xf154e3da2a9ac803!8m2!3d-6.928759!4d107.642875!16s%2Fg%2F1tgm08hm!19sChIJHf94Az3maC4RA8iaKtrjVPE?authuser=0&hl=id&rclk=1,True,Bandung,"Jakarta, Bekasi, Bogor, Depok, Cirebon, Denpasar (Bali), Surabaya, Malang"
Pahala kencana office,"4,1","Jl. Peta No.68, Situsaeur, Kec. Bojongloa Kidul, Kota Bandung, Jawa Barat 40231",,https://pahalakencana.co.id/,0852-2216-1826,-6.9373077,107.598979,https://www.google.com/maps/place/Pahala+kencana+office/data=!4m7!3m6!1s0x2e68e90a158294f9:0x91bd0f9f4bcf6745!8m2!3d-6.9373077!4d107.598979!16s%2Fg%2F11lvvh5sdr!19sChIJ-ZSCFQrpaC4RRWfPS58PvZE?authuser=0&hl=id&rclk=1,True,Bandung,
Pamitran Jaya,"4,7","Jl. Kiara Condong No.417, Kb. Kangkung, Kec. Kiaracondong, Kota Bandung, Jawa Barat 40284",07.30–21.00,http://www.pamitranjayatravel.com/,(022) 7316262,-6.9371124,107.6425388,https://www.google.com/maps/place/Pamitran+Jaya/data=!4m7!3m6!1s0x2e68e86d7d08df5f:0x46e05d84b7a2fe5d!8m2!3d-6.9371124!4d107.6425388!16s%2Fg%2F1pzqkvhhd!19sChIJX98IfW3oaC4RXf6it4Rd4EY?authuser=0&hl=id&rclk=1,True,Bandung,
Pasteur Trans Buah Batu,"4,2","Jl. Terusan Buah Batu samping ayam kalasan No.231, Kujangsari, Kec. Bandung Kidul, Kota Bandung, Jawa Barat 40287",05.00–21.00,http://www.pasteurtrans.id/,0821-2009-8889,-6.9607203,107.6392042,https://www.google.com/maps/place/Pasteur+Trans+Buah+Batu/data=!4m7!3m6!1s0x2e68e9006cbd90e9:0x5c741fb7e0534ff6!8m2!3d-6.9607203!4d107.6392042!16s%2Fg%2F11vpnfr28b!19sChIJ6ZC9bADpaC4R9k9T4LcfdFw?authuser=0&hl=id&rclk=1,True,Bandung,
Pecinta Pahala Kencana Bandung,"3,7","Jl. Peta No.68, Pelindung Hewan, Kec. Bojongloa Kidul, Kota Bandung, Jawa Barat 40233",,http://pahalakencana.co.id/,(022) 7231432,-6.9373077,107.598979,https://www.google.com/maps/place/Pecinta+Pahala+Kencana+Bandung/data=!4m7!3m6!1s0x2e68e762e87fb0cb:0x7d046abc2ec9ad34!8m2!3d-6.9373077!4d107.598979!16s%2Fg%2F11g2xcpxp0!19sChIJy7B_6GLnaC4RNK3JLrxqBH0?authuser=0&hl=id&rclk=1,True,Bandung,"Jakarta, Bekasi, Bogor, Depok, Cirebon, Denpasar (Bali), Surabaya, Malang"
Perum DAMRI Bandung,"5,0","Jl. Soekarno-Hatta No.787, Babakan Penghulu, Kec. Cinambo, Kota Bandung, Jawa Barat 40294",Buka 24 jam,,(022) 7800506,-6.9370563,107.6856826,https://www.google.com/maps/place/Perum+DAMRI+Bandung/data=!4m7!3m6!1s0x2e68c2b86d9948fd:0xf958cf3c0a350e4f!8m2!3d-6.9370563!4d107.6856826!16s%2Fg%2F1pzv81b7f!19sChIJ_UiZbbjCaC4RTw41CjzPWPk?authuser=0&hl=id&rclk=1,True,Bandung,
Po. Gunung Harta Cibiru,"4,5","3P89+724, Jl. Pendidikan, Cibiru Hilir, Kec. Cileunyi, Kabupaten Bandung, Jawa Barat 40615",07.00–19.00,,0823-2012-8006,-6.9343505,107.7175835,https://www.google.com/maps/place/Po.+Gunung+Harta+Cibiru/data=!4m7!3m6!1s0x2e68c3eb73242329:0xda26b08a146a5ad6!8m2!3d-6.9343505!4d107.7175835!16s%2Fg%2F11pyxtd3fw!19sChIJKSMkc-vDaC4R1lpqFIqwJto?authuser=0&hl=id&rclk=1,True,Bandung,
Po. Gunung Harta Imanuel,"4,4","Jl. Peta No.96, Situsaeur, Kec. Bojongloa Kidul, Kota Bandung, Jawa Barat 40234",08.00–19.00,,0812-2195-463,-6.9375539,107.5972126,https://www.google.com/maps/place/Po.+Gunung+Harta+Imanuel/data=!4m7!3m6!1s0x2e68e9852cab55b3:0x93f56fc8f38bb97f!8m2!3d-6.9375539!4d107.5972126!16s%2Fg%2F11ptwy46y2!19sChIJs1WrLIXpaC4Rf7mL88hv9ZM?authuser=0&hl=id&rclk=1,True,Bandung,
Po. Gunung Harta Solutions Cilenyi,"4,8","3Q64+WV7, Cileunyi Wetan, Kec. Cileunyi, Kabupaten Bandung, Jawa Barat 40622",,,0821-1680-2233,-6.937702,107.7571856,https://www.google.com/maps/place/Po.+Gunung+Harta+Solutions+Cilenyi/data=!4m7!3m6!1s0x2e68c346121d1fd5:0xee114c8880f68af7!8m2!3d-6.937702!4d107.7571856!16s%2Fg%2F11pl3k_s87!19sChIJ1R8dEkbDaC4R94r2gIhMEe4?authuser=0&hl=id&rclk=1,True,Bandung,
Po.Laju Prima Bandung,"5,0","Jl. Soekarno-Hatta No.197, Babakan Ciparay, Kec. Babakan Ciparay, Kota Bandung, Jawa Barat 40222",07.00–21.00,,0813-9458-0005,-6.9414328,107.5826704,https://www.google.com/maps/place/Po.Laju+Prima+Bandung/data=!4m7!3m6!1s0x2e68e8b1b2040fcf:0x66a8bcff7628b6c!8m2!3d-6.9414328!4d107.5826704!16s%2Fg%2F11bbx0sqdd!19sChIJzw8EsrHoaC4RbIti98-LagY?authuser=0&hl=id&rclk=1,True,Bandung,
Pool BUS BARAYA PARIWISATA,"4,3","Jl. Cihampelas No.6-2, Pasir Kaliki, Kec. Cicendo, Kota Bandung, Jawa Barat 40171",08.00–21.00,,,-6.90666,107.6045762,https://www.google.com/maps/place/Pool+BUS+BARAYA+PARIWISATA/data=!4m7!3m6!1s0x2e68e7ef072705b1:0xc8340890ee3aeb63!8m2!3d-6.90666!4d107.6045762!16s%2Fg%2F11trn08pxq!19sChIJsQUnB-_naC4RY-s67pAINMg?authuser=0&hl=id&rclk=1,True,Bandung,
Pool Damri Kebon Kawung,"5,0","Jl. Kebon Kawung No.20, Pasir Kaliki, Kec. Cicendo, Kota Bandung, Jawa Barat 40171",06.00–22.00,https://wa.me/628161656743,0816-1656-743,-6.9124436,107.6027256,https://www.google.com/maps/place/Pool+Damri+Kebon+Kawung/data=!4m7!3m6!1s0x2e68e63eabf3a609:0xce8b5759107907df!8m2!3d-6.9124436!4d107.6027256!16s%2Fg%2F11b7ccyhwn!19sChIJCabzqz7maC4R3wd5EFlXi84?authuser=0&hl=id&rclk=1,True,Bandung,
Pool Gracias,"3,2","Samping Rumah Makan Simpang Raya, Jl. Dr. Djundjunan No.184, Sukagalih, Kec. Sukajadi, Kota Bandung, Jawa Barat 45311",06.00–22.00,http://mytrans.co.id/,0878-0877-7889,-6.8925593,107.5851336,https://www.google.com/maps/place/Pool+Gracias/data=!4m7!3m6!1s0x2e68e732cf44cfd1:0xbfc5d877c4d8f6c8!8m2!3d-6.8925593!4d107.5851336!16s%2Fg%2F11sdswf23w!19sChIJ0c9EzzLnaC4RyPbYxHfYxb8?authuser=0&hl=id&rclk=1,True,Bandung,
Pool Sinar Jaya Gedebage Bandung,"4,3","Jl. Cimincrang No.10, Cimenerang, Kec. Gedebage, Kota Bandung, Jawa Barat 40294",05.00–20.00,http://www.sinarjayagroup.co.id/,0815-1403-4596,-6.9392233,107.7066246,https://www.google.com/maps/place/Pool+Sinar+Jaya+Gedebage+Bandung/data=!4m7!3m6!1s0x2e68c3b399ea0c15:0x6392ece43706ff24!8m2!3d-6.9392233!4d107.7066246!16s%2Fg%2F11v42l56r4!19sChIJFQzqmbPDaC4RJP8GN-TskmM?authuser=0&hl=id&rclk=1,True,Bandung,"Bogor, Bekasi, Jakarta, Yogyakarta, Surabaya, Banjarnegara, Temanggung, Banyuwangi, Surakarta, Purbalingga, Salatiga, Cepu, Blora, Kebumen, Sumenep, Banyumas, Sukoharjo, Pekalongan, Kuningan, Weleri, Mateseh, Karawang, Pemalang, Brebes, Purwodadi, Prambanan, Sleman, Banjar, Grobogan, Semarang, Metro, Sampang, Cilacap, Tegal, Magelang, Wonosobo, Klaten, Klampok, Boyolali"
Pos Kontrol Bis Primajasa,"4,9","XW7J+C3Q, Ciaro, Kec. Nagreg, Kabupaten Bandung, Jawa Barat 40215",,,,-7.0364157,107.9302367,https://www.google.com/maps/place/Pos+Kontrol+Bis+Primajasa/data=!4m7!3m6!1s0x2e68c974d9938307:0x388a4f9c79d36b5d!8m2!3d-7.0364157!4d107.9302367!16s%2Fg%2F11gfhhrlpf!19sChIJB4OT2XTJaC4RXWvTeZxPijg?authuser=0&hl=id&rclk=1,True,Bandung,
Pull DAMRI kebon kawung,"4,2","3JQX+QVH, Cicaheum, Kec. Kiaracondong, Kota Bandung, Jawa Barat",,,,-6.910553,107.6497334,https://www.google.com/maps/place/Pull+DAMRI+kebon+kawung/data=!4m7!3m6!1s0x2e68e737bfdede13:0x5fd177aed1947889!8m2!3d-6.910553!4d107.6497334!16s%2Fg%2F11k48wpds6!19sChIJE97evzfnaC4RiXiU0a530V8?authuser=0&hl=id&rclk=1,True,Bandung,
Putra Mitra Tour,"5,0","JL. Cipedes Hegar I, No. 46 B Rt. 05 Rw. 03, Pajajaran Cicendo, Pajajaran, Bandung, Kota Bandung, Jawa Barat 40173",,,(022) 6079311,-6.8973366,107.5889326,https://www.google.com/maps/place/Putra+Mitra+Tour/data=!4m7!3m6!1s0x2e68e69692e714a5:0xc515a270cc4d3d66!8m2!3d-6.8973366!4d107.5889326!16s%2Fg%2F1pzt4vtp7!19sChIJpRTnkpbmaC4RZj1NzHCiFcU?authuser=0&hl=id&rclk=1,True,Bandung,
Putra Palem Tour & Travel,"5,0","Cs_WA.(0838, Jl. Taman Siswa No.3 38699056Jl, Malabar, Kec. Lengkong, Kota Bandung, Jawa Barat 40262",,,(022) 7301147,-6.9284487,107.6200755,https://www.google.com/maps/place/Putra+Palem+Tour+%26+Travel/data=!4m7!3m6!1s0x2e68e8800e37af61:0x6dc1feba69118d89!8m2!3d-6.9284487!4d107.6200755!16s%2Fg%2F1pzrz2q7w!19sChIJYa83DoDoaC4RiY0Rabr-wW0?authuser=0&hl=id&rclk=1,True,Bandung,
Qiblat Tour,"4,6","Jl. Tm. Cibeunying Sel. No.15, Cihapit, Kec. Bandung Wetan, Kota Bandung, Jawa Barat 40114",09.00–17.00,https://www.qiblattour.co.id/qiblat/tentangkami/,(022) 7271409,-6.9075276,107.6257144,https://www.google.com/maps/place/Qiblat+Tour/data=!4m7!3m6!1s0x2e68e7ca726aaaa5:0x52075b8aa9668f3b!8m2!3d-6.9075276!4d107.6257144!16s%2Fg%2F1hm4x3qm_!19sChIJpapqcsrnaC4RO49mqYpbB1I?authuser=0&hl=id&rclk=1,True,Bandung,
Rabbanitour Travel Umroh | Haji Plus Terbaik,"4,8","Jl. Kejaksaan No.37A, Braga, Kec. Sumur Bandung, Kota Bandung, Jawa Barat 40111",08.30–16.30,https://rabbanitour.travel/?source=google_bisnis,0822-8000-1799,-6.9184303,107.612044,https://www.google.com/maps/place/Rabbanitour+Travel+Umroh+%7C+Haji+Plus+Terbaik/data=!4m7!3m6!1s0x2e68e628d31c8445:0xe386b2ee4cefc7ac!8m2!3d-6.9184303!4d107.612044!16s%2Fg%2F1pzswgvsk!19sChIJRYQc0yjmaC4RrMfvTO6yhuM?authuser=0&hl=id&rclk=1,True,Bandung,
Raja Tour Bandung,"4,8","Jl. Ranggamalela No.11, Tamansari, Kec. Bandung Wetan, Kota Bandung, Jawa Barat 40116",09.00–15.30,https://rajatourbandung.com/,0812-2263-5535,-6.9015109,107.6107201,https://www.google.com/maps/place/Raja+Tour+Bandung/data=!4m7!3m6!1s0x2e68e7c268076b63:0x7faa372e4ebb3a26!8m2!3d-6.9015109!4d107.6107201!16s%2Fg%2F11b7fs8y4c!19sChIJY2sHaMLnaC4RJjq7Ti43qn8?authuser=0&hl=id&rclk=1,True,Bandung,
RedWhite Star Primajasa Bandung,"4,7","Jl. Diponegoro No.32, Citarum, Kec. Bandung Wetan, Kota Bandung, Jawa Barat 40115",Buka 24 jam,,0812-2108-5084,-6.9014961,107.6222412,https://www.google.com/maps/place/RedWhite+Star+Primajasa+Bandung/data=!4m7!3m6!1s0x2e68e7254e1db7c1:0x7cc209743f3d38d2!8m2!3d-6.9014961!4d107.6222412!16s%2Fg%2F11nmlgmx3v!19sChIJwbcdTiXnaC4R0jg9P3QJwnw?authuser=0&hl=id&rclk=1,True,Bandung,
SAHABAT SHUTTLE BUAH BATU,"4,9","Jl. Terusan Buah Batu No.300, Kujangsari, Kec. Bandung Kidul, Kota Bandung, Jawa Barat 40287",,http://www.sahabatbis.co.id/,0811-2448-905,-6.9641192,107.6381438,https://www.google.com/maps/place/SAHABAT+SHUTTLE+BUAH+BATU/data=!4m7!3m6!1s0x2e68e918a08d5e41:0x5661b02ae3517471!8m2!3d-6.9641192!4d107.6381438!16s%2Fg%2F11h1rc6_2p!19sChIJQV6NoBjpaC4RcXRR4yqwYVY?authuser=0&hl=id&rclk=1,True,Bandung,
SINAR JAYA LEUWI PANJANG,"4,3","LEUWI PANJANG, Terminal, Jl. Leuwi Panjang Gg. Panyileukan Dalam No.16 ruko Lt. 2 No.15, Situsaeur, Kec. Bojongloa Kidul, Kota Bandung, Jawa Barat 40233",07.00–15.00,,0815-8538-1767,-6.9460174,107.5950749,https://www.google.com/maps/place/SINAR+JAYA+LEUWI+PANJANG/data=!4m7!3m6!1s0x2e68e9cf3a6a4df9:0x739b7da80e1a5027!8m2!3d-6.9460174!4d107.5950749!16s%2Fg%2F11slqv3qm2!19sChIJ-U1qOs_paC4RJ1AaDqh9m3M?authuser=0&hl=id&rclk=1,True,Bandung,"Bogor, Bekasi, Jakarta, Yogyakarta, Surabaya, Banjarnegara, Temanggung, Banyuwangi, Surakarta, Purbalingga, Salatiga, Cepu, Blora, Kebumen, Sumenep, Banyumas, Sukoharjo, Pekalongan, Kuningan, Weleri, Mateseh, Karawang, Pemalang, Brebes, Purwodadi, Prambanan, Sleman, Banjar, Grobogan, Semarang, Metro, Sampang, Cilacap, Tegal, Magelang, Wonosobo, Klaten, Klampok, Boyolali"
SINAR JAYA SHUTTLE PASTEUR,"4,1","Jl. Dr. Djundjunan No.69, Pasteur, Kec. Sukajadi, Kota Bandung, Jawa Barat 40173",03.00–20.00,,,-6.8965332,107.5907227,https://www.google.com/maps/place/SINAR+JAYA+SHUTTLE+PASTEUR/data=!4m7!3m6!1s0x2e68e7003f5132ad:0xd1c4af1bd7a06b53!8m2!3d-6.8965332!4d107.5907227!16s%2Fg%2F11vx25zw3w!19sChIJrTJRPwDnaC4RU2ug1xuvxNE?authuser=0&hl=id&rclk=1,True,Bandung,"Bogor, Bekasi, Jakarta, Yogyakarta, Surabaya, Banjarnegara, Temanggung, Banyuwangi, Surakarta, Purbalingga, Salatiga, Cepu, Blora, Kebumen, Sumenep, Banyumas, Sukoharjo, Pekalongan, Kuningan, Weleri, Mateseh, Karawang, Pemalang, Brebes, Purwodadi, Prambanan, Sleman, Banjar, Grobogan, Semarang, Metro, Sampang, Cilacap, Tegal, Magelang, Wonosobo, Klaten, Klampok, Boyolali"
SINARJAYA-CARINGIN BANDUNG,"4,2","Jl. Soekarno-Hatta No.197, Babakan Ciparay, Kec. Babakan Ciparay, Kota Bandung, Jawa Barat 40223",,http://sinarjayagroup.co.id/,0815-1102-3915,-6.9414878,107.5828873,https://www.google.com/maps/place/SINARJAYA-CARINGIN+BANDUNG/data=!4m7!3m6!1s0x2e68e9d7ad31b967:0x4e6cc0ef292ea740!8m2!3d-6.9414878!4d107.5828873!16s%2Fg%2F11pkjfdx9q!19sChIJZ7kxrdfpaC4RQKcuKe_AbE4?authuser=0&hl=id&rclk=1,True,Bandung,
SOBAT TRANS Shuttle Buah Batu,"5,0","Jl. Terusan Buah Batu No.179, Kujangsari, Kec. Bandung Kidul, Kota Bandung, Jawa Barat 40287",04.30–21.00,http://www.ztrans.id/,0819-1596-6598,-6.9580178,107.6396845,https://www.google.com/maps/place/SOBAT+TRANS+Shuttle+Buah+Batu/data=!4m7!3m6!1s0x2e68e9c3f4290e7d:0xf628d6476a3f0c91!8m2!3d-6.9580178!4d107.6396845!16s%2Fg%2F11y3n3cy1q!19sChIJfQ4p9MPpaC4RkQw_akfWKPY?authuser=0&hl=id&rclk=1,True,Bandung,
Sabana Coffee Adventure,"5,0","Jl. Permai 4 No.6, Mekar Rahayu, Kec. Margaasih, Kabupaten Bandung, Jawa Barat 40218",10.00–16.00,http://sabanacoffeeadventure.id/,,-6.9746092,107.5604008,https://www.google.com/maps/place/Sabana+Coffee+Adventure/data=!4m7!3m6!1s0x2e68efd44fa77681:0xdac23074f8b59cf7!8m2!3d-6.9746092!4d107.5604008!16s%2Fg%2F11fp8j6w5y!19sChIJgXanT9TvaC4R95y1-HQwwto?authuser=0&hl=id&rclk=1,True,Bandung,
Safari Suci,"4,7","Jl. Taman Citarum No.11, Citarum, Kec. Bandung Wetan, Kota Bandung, Jawa Barat 40115",08.30–16.30,http://www.safarisuci.co.id/,(022) 4205133,-6.9046587,107.6209482,https://www.google.com/maps/place/Safari+Suci/data=!4m7!3m6!1s0x2e68e64ad6a6b279:0xd375cd9296c671df!8m2!3d-6.9046587!4d107.6209482!16s%2Fg%2F1tsvw98c!19sChIJebKm1krmaC4R33HGlpLNddM?authuser=0&hl=id&rclk=1,True,Bandung,
Seattle Xtrans Travel,"4,4","Vio Hotel, Jl. Cihampelas No.110, Tamansari, Kec. Bandung Wetan, Kota Bandung, Jawa Barat 40116",,,0822-4048-0735,-6.8982681,107.6042343,https://www.google.com/maps/place/Seattle+Xtrans+Travel/data=!4m7!3m6!1s0x2e68e7bffaea784d:0x463cf1db7b81f659!8m2!3d-6.8982681!4d107.6042343!16s%2Fg%2F11gs4gmpvj!19sChIJTXjq-r_naC4RWfaBe9vxPEY?authuser=0&hl=id&rclk=1,True,Bandung,
Sewa Bus Bandung - Baraya Tourist,"5,0","Jl. Komp. Griya Caraka No.G-24, Cisaranten Endah, Kec. Arcamanik, Kota Bandung, Jawa Barat 40293",09.00–18.00,http://www.baraya-travel.com/,0821-2010-0391,-6.9343139,107.6744116,https://www.google.com/maps/place/Sewa+Bus+Bandung+-+Baraya+Tourist/data=!4m7!3m6!1s0x2e68e81c1883c955:0xb8bb072a1f092912!8m2!3d-6.9343139!4d107.6744116!16s%2Fg%2F11g6wv6581!19sChIJVcmDGBzoaC4REikJHyoHu7g?authuser=0&hl=id&rclk=1,True,Bandung,
Sewa Bus Pariwisata Bandung | Hayu Piknik,"5,0","Jl. Kacapiring No.30 122, Kacapiring, Kec. Batununggal, Kota Bandung, Jawa Barat 40271",Buka 24 jam,https://hayupiknik.com/,0811-1115-8989,-6.918162,107.629073,https://www.google.com/maps/place/Sewa+Bus+Pariwisata+Bandung+%7C+Hayu+Piknik/data=!4m7!3m6!1s0x2e68e768d263c6d3:0x5b312054a81a9526!8m2!3d-6.918162!4d107.629073!16s%2Fg%2F11fs_jyzr3!19sChIJ08Zj0mjnaC4RJpUaqFQgMVs?authuser=0&hl=id&rclk=1,True,Bandung,
Shelter Primajasa,"4,6","No Jl. Raya Bandung - Garut No.4, Ciherang, Kec. Nagreg, Kabupaten Bandung, Jawa Barat 40215",,,,-7.0489146,107.9005295,https://www.google.com/maps/place/Shelter+Primajasa/data=!4m7!3m6!1s0x2e68c8518a94e1a5:0x5421ee6f032bef80!8m2!3d-7.0489146!4d107.9005295!16s%2Fg%2F11bxfsyk41!19sChIJpeGUilHIaC4RgO8rA2_uIVQ?authuser=0&hl=id&rclk=1,True,Bandung,
Sinar Jaya Shuttle Ruko Surapati Core,"3,8","Ruko, Surapati Core, Jl. Khp Hasan Mustopa Blok J18, Pasirlayung, Kec. Cibeunying Kidul, Kota Bandung, Jawa Barat 40192",,,0811-1917-5248,-6.8997798,107.6530098,https://www.google.com/maps/place/Sinar+Jaya+Shuttle+Ruko+Surapati+Core/data=!4m7!3m6!1s0x2e68e7475edcedd3:0x4d267379839ac90!8m2!3d-6.8997798!4d107.6530098!16s%2Fg%2F11t7cbvrzg!19sChIJ0-3cXkfnaC4RkKw5mDdn0gQ?authuser=0&hl=id&rclk=1,True,Bandung,"Bogor, Bekasi, Jakarta, Yogyakarta, Surabaya, Banjarnegara, Temanggung, Banyuwangi, Surakarta, Purbalingga, Salatiga, Cepu, Blora, Kebumen, Sumenep, Banyumas, Sukoharjo, Pekalongan, Kuningan, Weleri, Mateseh, Karawang, Pemalang, Brebes, Purwodadi, Prambanan, Sleman, Banjar, Grobogan, Semarang, Metro, Sampang, Cilacap, Tegal, Magelang, Wonosobo, Klaten, Klampok, Boyolali"
Terminal Citeureup Dayaehkolot,"4,0","2J7H+P67, Citeureup, Kec. Dayeuhkolot, Kabupaten Bandung, Jawa Barat",,,,-6.985721,107.6280355,https://www.google.com/maps/place/Terminal+Citeureup+Dayaehkolot/data=!4m7!3m6!1s0x2e68e9006c12b041:0xaa2c9793d8480e7e!8m2!3d-6.985721!4d107.6280355!16s%2Fg%2F11y5q0s7kz!19sChIJQbASbADpaC4Rfg5I2JOXLKo?authuser=0&hl=id&rclk=1,True,Bandung,
Terminal Damri Leuwipanjang,"2,7","Jl. Leuwi Panjang, Situsaeur, Kec. Bojongloa Kidul, Kota Bandung, Jawa Barat 40233",,,0813-7399-4802,-6.9460604,107.5946567,https://www.google.com/maps/place/Terminal+Damri+Leuwipanjang/data=!4m7!3m6!1s0x2e68e93b8e62cc45:0x48a01f9a0e54247b!8m2!3d-6.9460604!4d107.5946567!16s%2Fg%2F11fd6m5dkw!19sChIJRcxijjvpaC4ReyRUDpofoEg?authuser=0&hl=id&rclk=1,True,Bandung,
Tiketux,"5,0","Jl. Purbasari 4 No.1, Cipageran, Kec. Cimahi Utara, Kota Cimahi, Jawa Barat 40511",Buka 24 jam,https://www.tiketux.com/,0818-0400-4028,-6.866641,107.5347632,https://www.google.com/maps/place/Tiketux/data=!4m7!3m6!1s0x2e68e43abd62b1f3:0xaaf93c6ba2bfe90a!8m2!3d-6.866641!4d107.5347632!16s%2Fg%2F11f08hvqhq!19sChIJ87FivTrkaC4RCum_oms8-ao?authuser=0&hl=id&rclk=1,True,Bandung,
Transit bus damri soroja,"3,8","XGPJ+256, Parungserab, Kec. Soreang, Kabupaten Bandung, Jawa Barat 40921",05.30–17.00,,,-7.0156545,107.5305406,https://www.google.com/maps/place/Transit+bus+damri+soroja/data=!4m7!3m6!1s0x2e68ed30eacaea23:0x308d8039d56222ed!8m2!3d-7.0156545!4d107.5305406!16s%2Fg%2F11t297zwg3!19sChIJI-rK6jDtaC4R7SJi1TmAjTA?authuser=0&hl=id&rclk=1,True,Bandung,
Travel Bandung Jakarta bandara dillatrans,"4,6","Bandung katapang sukamukti Perumahan pondok indah 1, Blk. B No.4, Bojongkunci, Kabupaten Bandung, Jawa Barat 40921",Buka 24 jam,https://www.dillatrans.com/,0821-1110-1634,-7.0053294,107.5746543,https://www.google.com/maps/place/Travel+Bandung+Jakarta+bandara+dillatrans/data=!4m7!3m6!1s0x2e68e9e295480449:0x93841d680d2cdce!8m2!3d-7.0053294!4d107.5746543!16s%2Fg%2F11p1310x2r!19sChIJSQRIleLpaC4Rzs3SgNZBOAk?authuser=0&hl=id&rclk=1,True,Bandung,
Travel Door To Door Bandung Jakarta,"5,0","Jalan Maleer IV No.37 Maleer Bandung, Maleer, Kec. Batununggal, Jawa Barat, 40274",00.00–23.30,,0812-2406-3099,-6.927053,107.639446,https://www.google.com/maps/place/Travel+Door+To+Door+Bandung+Jakarta/data=!4m7!3m6!1s0x2e68e7df557a3fd5:0xdb2b03f7ab01338f!8m2!3d-6.927053!4d107.639446!16s%2Fg%2F11cmz_4k4r!19sChIJ1T96Vd_naC4RjzMBq_cDK9s?authuser=0&hl=id&rclk=1,True,Bandung,
Travel Door To Door Kiw Trans,"5,0","Jalan Nusantara 1 No.92, Cipagalo, Kec. Bojongsoang, Kabupaten Bandung, Jawa Barat 40287",Buka 24 jam,,0812-2303-9907,-6.9675404,107.6527723,https://www.google.com/maps/place/Travel+Door+To+Door+Kiw+Trans/data=!4m7!3m6!1s0x2e68e973a3e0b273:0xe6f51c4da84b0705!8m2!3d-6.9675404!4d107.6527723!16s%2Fg%2F11sjh9r6pk!19sChIJc7Lgo3PpaC4RBQdLqE0c9eY?authuser=0&hl=id&rclk=1,True,Bandung,
Travel LINTAS di Kopo Bandung,"4,1","2HMG+45R, Jl. Kopo Sayati, Sayati, Kec. Margahayu, Kabupaten Bandung, Jawa Barat",05.00–20.30,http://mylintas.co.id/,0821-3732-3745,-6.9671308,107.5753855,https://www.google.com/maps/place/Travel+LINTAS+di+Kopo+Bandung/data=!4m7!3m6!1s0x2e68e9e562ca82ab:0xb1251b37fdf242f1!8m2!3d-6.9671308!4d107.5753855!16s%2Fg%2F11tnw7z4vs!19sChIJq4LKYuXpaC4R8ULy_TcbJbE?authuser=0&hl=id&rclk=1,True,Bandung,
Travel Sinar Shuttle BTC,"3,8","Topas Galeria Hotel, Jl. Dr. Djundjunan No.153, Pajajaran, Kec. Cicendo, Kota Bandung, Jawa Barat",,,0811-8339-111,-6.8928356,107.5839164,https://www.google.com/maps/place/Travel+Sinar+Shuttle+BTC/data=!4m7!3m6!1s0x2e68e67b5ec6a3b1:0xe67cc93d86fff089!8m2!3d-6.8928356!4d107.5839164!16s%2Fg%2F11b7llsxmr!19sChIJsaPGXnvmaC4RifD_hj3JfOY?authuser=0&hl=id&rclk=1,True,Bandung,
Trijaya Trans - Bus Pariwisata,"4,8","Jl. Sriwijaya No.92, Cigereleng, Kec. Regol, Kota Bandung, Jawa Barat 40253",08.00–17.00,https://trijayatrans.com/,0815-6006-620,-6.9441756,107.6127262,https://www.google.com/maps/place/Trijaya+Trans+-+Bus+Pariwisata/data=!4m7!3m6!1s0x2e68e84220c1be31:0xe4e890308680c688!8m2!3d-6.9441756!4d107.6127262!16s%2Fg%2F1pzvfgbcs!19sChIJMb7BIELoaC4RiMaAhjCQ6OQ?authuser=0&hl=id&rclk=1,True,Bandung,
Utixindo Tour & Travel,"5,0","Jl. Tubagus Ismail - Depan No.67, Sekeloa, Kecamatan Coblong, Kota Bandung, Jawa Barat 40134",09.00–17.00,http://www.utixindo.co.id/,0877-2211-8624,-6.8838265,107.6154631,https://www.google.com/maps/place/Utixindo+Tour+%26+Travel/data=!4m7!3m6!1s0x2e68e6f92c67b2e9:0xb6e0dc18533b5008!8m2!3d-6.8838265!4d107.6154631!16s%2Fg%2F11c5fz5v9p!19sChIJ6bJnLPnmaC4RCFA7Uxjc4LY?authuser=0&hl=id&rclk=1,True,Bandung,
Wisata Bandung Offroad,"5,0","Jl. Puri Cipageran Indah 1 B.40, Cipageran, Kec. Cimahi Utara, Kota Cimahi, Jawa Barat 40511",Buka 24 jam,http://www.bandungoffroad.com/,0878-2932-0449,-6.8573471,107.5404505,https://www.google.com/maps/place/Wisata+Bandung+Offroad/data=!4m7!3m6!1s0x2e68e7ca25ad2e31:0x64539bdae4bd64dc!8m2!3d-6.8573471!4d107.5404505!16s%2Fg%2F11c6q7b7xg!19sChIJMS6tJcrnaC4R3GS95NqbU2Q?authuser=0&hl=id&rclk=1,True,Bandung,
Xtrans - Pasteur,"5,0","Jl. Dr. Djundjunan No.35, Pamoyanan, Kec. Cicendo, Kota Bandung, Jawa Barat 40173",Buka 24 jam,http://xtrans.co.id/,(022) 82062555,-6.8980095,107.5927861,https://www.google.com/maps/place/Xtrans+-+Pasteur/data=!4m7!3m6!1s0x2e68e6425522f821:0xb2e7d4a8945befd4!8m2!3d-6.8980095!4d107.5927861!16s%2Fg%2F1pzxdkkdd!19sChIJIfgiVULmaC4R1O9blKjU57I?authuser=0&hl=id&rclk=1,True,Bandung,
Xtrans Travel Last Minute Point,"5,0","Jl. Dr. Setiabudi, Cipaganti, Kecamatan Coblong, Kota Bandung, Jawa Barat 40131",Buka 24 jam,http://www.xtrans.co.id/,(022) 82062555,-6.8904724,107.6045162,https://www.google.com/maps/place/Xtrans+Travel+Last+Minute+Point/data=!4m7!3m6!1s0x2e68e65925555555:0xf09a82e17e26c2f4!8m2!3d-6.8904724!4d107.6045162!16s%2Fg%2F11bbrh7jc6!19sChIJVVVVJVnmaC4R9MImfuGCmvA?authuser=0&hl=id&rclk=1,True,Bandung,
