name,rating,address,hours_today,website,phone,latitude,longitude,link,is_relevant
Jackal Holiday Luxury Shuttle,"3,8","Jl. DR. Djunjunan Dalam No.87, Pajajaran, Kec. Cicendo, Kota Bandung, Jawa Barat 40173",,http://shuttle.jackalholidays.com/,(021) 50600678,-6.8962801,107.5899605,https://www.google.com/maps/place/Jackal+Holiday+Luxury+Shuttle/data=!4m7!3m6!1s0x2e68e7ce96af5e87:0x8d1f816830d714cc!8m2!3d-6.8962801!4d107.5899605!16s%2Fg%2F11gbqp06qt!19sChIJh16vls7naC4RzBTXMGiBH40?authuser=0&hl=id&rclk=1,True
Jackal Holidays Luxury Shuttle (Kiaracondong),"4,3","Jl. Kiara Condong No.473, Kb. Kangkung, Kec. Kiaracondong, Kota Bandung, Jawa Barat 40275",Buka 24 jam,http://shuttle.jackalholidays.com/,(021) 50600678,-6.9440254,107.6421811,https://www.google.com/maps/place/Jackal+Holidays+Luxury+Shuttle+%28Kiaracondong%29/data=!4m7!3m6!1s0x2e68e9ce265390a5:0x8736102e31b780f7!8m2!3d-6.9440254!4d107.6421811!16s%2Fg%2F11dfqtv9wd!19sChIJpZBTJs7paC4R94C3MS4QNoc?authuser=0&hl=id&rclk=1,True
Jackal Holidays Luxury Shuttle Buah Batu,"3,8","Jl. Terusan Buah Batu No.261, Kujangsari, Kec. Bandung Kidul, Kota Bandung, Jawa Barat 40287",03.30–19.30,http://shuttle.jackalholidays.com/,,-6.9608791,107.6390507,https://www.google.com/maps/place/Jackal+Holidays+Luxury+Shuttle+Buah+Batu/data=!4m7!3m6!1s0x2e68e9004eb20a8f:0x86e282ead9197854!8m2!3d-6.9608791!4d107.6390507!16s%2Fg%2F11w4ty18lr!19sChIJjwqyTgDpaC4RVHgZ2eqC4oY?authuser=0&hl=id&rclk=1,True
Jackal Holidays Luxury Shuttle (DU 89),"4,2","Jl. Dipati Ukur No.89, Lebakgede, Kecamatan Coblong, Kota Bandung, Jawa Barat 40132",Buka 24 jam,,0877-2255-1854,-6.8874849,107.614943,https://www.google.com/maps/place/Jackal+Holidays+Luxury+Shuttle+%28DU+89%29/data=!4m7!3m6!1s0x2e68e79780a9aa31:0xa635fe391232ad50!8m2!3d-6.8874849!4d107.614943!16s%2Fg%2F11j0tr8yd_!19sChIJMaqpgJfnaC4RUK0yEjn-NaY?authuser=0&hl=id&rclk=1,True
Jackal Holidays,"4,5","Jl. Soekarno-Hatta No.593, Kb. Kangkung, Kec. Kiaracondong, Kota Bandung, Jawa Barat 40284",08.30–16.30,,(022) 7302244,-6.9444053,107.6430083,https://www.google.com/maps/place/Jackal+Holidays/data=!4m7!3m6!1s0x2e68e86b04b15893:0x33fc4a36f5fb5fbe!8m2!3d-6.9444053!4d107.6430083!16s%2Fg%2F1hm3bvwmw!19sChIJk1ixBGvoaC4Rvl_79TZK_DM?authuser=0&hl=id&rclk=1,True
Jackal Holiday UNIKOM Dipatikukur,"3,8","Jl. Dipati Ukur No.89, Lebakgede, Kecamatan Coblong, Kota Bandung, Jawa Barat 40132",,,,-6.8874759,107.6148685,https://www.google.com/maps/place/Jackal+Holiday+UNIKOM+Dipatikukur/data=!4m7!3m6!1s0x2e68e7c241d0c01b:0x3219024190bbe806!8m2!3d-6.8874759!4d107.6148685!16s%2Fg%2F11vt4tdw86!19sChIJG8DQQcLnaC4RBui7kEECGTI?authuser=0&hl=id&rclk=1,True
Jackal Holiday UNIKOM Dipatikukur,"3,8","Jl. Dipati Ukur No.89, Lebakgede, Kecamatan Coblong, Kota Bandung, Jawa Barat 40132",,,,-6.8874759,107.6148685,https://www.google.com/maps/place/Jackal+Holiday+UNIKOM+Dipatikukur/data=!4m7!3m6!1s0x2e68e7c241d0c01b:0x3219024190bbe806!8m2!3d-6.8874759!4d107.6148685!16s%2Fg%2F11vt4tdw86!19sChIJG8DQQcLnaC4RBui7kEECGTI?authuser=0&hl=id&rclk=1,True
