name,rating,address,hours_today,website,phone,latitude,longitude,link,is_relevant
SINARJAYA-CARINGIN BANDUNG,"4,2","Jl. Soekarno-Hatta No.197, Babakan Ciparay, Kec. Babakan Ciparay, Kota Bandung, Jawa Barat 40223",,http://sinarjayagroup.co.id/,0815-1102-3915,-6.9414878,107.5828873,https://www.google.com/maps/place/SINARJAYA-CARINGIN+BANDUNG/data=!4m7!3m6!1s0x2e68e9d7ad31b967:0x4e6cc0ef292ea740!8m2!3d-6.9414878!4d107.5828873!16s%2Fg%2F11pkjfdx9q!19sChIJZ7kxrdfpaC4RQKcuKe_AbE4?authuser=0&hl=id&rclk=1,True
SINAR JAYA LEUWI PANJANG,"4,3","LEUWI PANJANG, Terminal, Jl. Leuwi Panjang Gg. Panyileukan Dalam No.16 ruko Lt. 2 No.15, Situsaeur, Kec. Bojongloa Kidul, Kota Bandung, Jawa Barat 40233",07.00–15.00,,0815-8538-1767,-6.9460174,107.5950749,https://www.google.com/maps/place/SINAR+JAYA+LEUWI+PANJANG/data=!4m7!3m6!1s0x2e68e9cf3a6a4df9:0x739b7da80e1a5027!8m2!3d-6.9460174!4d107.5950749!16s%2Fg%2F11slqv3qm2!19sChIJ-U1qOs_paC4RJ1AaDqh9m3M?authuser=0&hl=id&rclk=1,True
Pool Sinar Jaya Gedebage Bandung,"4,3","Jl. Cimincrang No.10, Cimenerang, Kec. Gedebage, Kota Bandung, Jawa Barat 40294",05.00–20.00,http://www.sinarjayagroup.co.id/,0815-1403-4596,-6.9392233,107.7066246,https://www.google.com/maps/place/Pool+Sinar+Jaya+Gedebage+Bandung/data=!4m7!3m6!1s0x2e68c3b399ea0c15:0x6392ece43706ff24!8m2!3d-6.9392233!4d107.7066246!16s%2Fg%2F11v42l56r4!19sChIJFQzqmbPDaC4RJP8GN-TskmM?authuser=0&hl=id&rclk=1,True
Agen sinar jaya cicaheum bandung,"4,3","Terminal Bus Cicaheum, Jl. A. Yani, Cicaheum, Kec. Kiaracondong, Kota Bandung, Jawa Barat 40282",05.00–19.00,,0838-7934-9094,-6.9023261,107.6571696,https://www.google.com/maps/place/Agen+sinar+jaya+cicaheum+bandung/data=!4m7!3m6!1s0x2e68e7d727a435a3:0x2a20888f09390ae7!8m2!3d-6.9023261!4d107.6571696!16s%2Fg%2F11l30wbl97!19sChIJozWkJ9fnaC4R5wo5CY-IICo?authuser=0&hl=id&rclk=1,True
Sinar Jaya Shuttle Ruko Surapati Core,"3,8","Ruko, Surapati Core, Jl. Khp Hasan Mustopa Blok J18, Pasirlayung, Kec. Cibeunying Kidul, Kota Bandung, Jawa Barat 40192",,,0811-1917-5248,-6.8997798,107.6530098,https://www.google.com/maps/place/Sinar+Jaya+Shuttle+Ruko+Surapati+Core/data=!4m7!3m6!1s0x2e68e7475edcedd3:0x4d267379839ac90!8m2!3d-6.8997798!4d107.6530098!16s%2Fg%2F11t7cbvrzg!19sChIJ0-3cXkfnaC4RkKw5mDdn0gQ?authuser=0&hl=id&rclk=1,True
Travel Sinar Shuttle BTC,"3,8","Topas Galeria Hotel, Jl. Dr. Djundjunan No.153, Pajajaran, Kec. Cicendo, Kota Bandung, Jawa Barat",,,0811-8339-111,-6.8928356,107.5839164,https://www.google.com/maps/place/Travel+Sinar+Shuttle+BTC/data=!4m7!3m6!1s0x2e68e67b5ec6a3b1:0xe67cc93d86fff089!8m2!3d-6.8928356!4d107.5839164!16s%2Fg%2F11b7llsxmr!19sChIJsaPGXnvmaC4RifD_hj3JfOY?authuser=0&hl=id&rclk=1,True
SINAR JAYA SHUTTLE PASTEUR,"4,1","Jl. Dr. Djundjunan No.69, Pasteur, Kec. Sukajadi, Kota Bandung, Jawa Barat 40173",03.00–20.00,,,-6.8965332,107.5907227,https://www.google.com/maps/place/SINAR+JAYA+SHUTTLE+PASTEUR/data=!4m7!3m6!1s0x2e68e7003f5132ad:0xd1c4af1bd7a06b53!8m2!3d-6.8965332!4d107.5907227!16s%2Fg%2F11vx25zw3w!19sChIJrTJRPwDnaC4RU2ug1xuvxNE?authuser=0&hl=id&rclk=1,True
